{
   "data": [
      {
         "name": "Santana Row",
         "category": "Local business",
         "location": {
            "street": "3055 OLIN AVENUE",
            "city": "San Jose",
            "state": "CA",
            "country": "United States",
            "zip": "95128",
            "latitude": 37.320991926865,
            "longitude": -121.94819317082
         },
         "id": "123448234369140"
      },
      {
         "name": "Westfield Valley Fair",
         "category": "Shopping/retail",
         "location": {
            "street": "2855 Stevens Creek Blvd.",
            "city": "Santa Clara",
            "state": "CA",
            "country": "United States",
            "zip": "95050",
            "latitude": 37.325574253465,
            "longitude": -121.94474960383
         },
         "id": "155794016908"
      },
      {
         "name": "Yard House",
         "category": "Local business",
         "location": {
            "street": "300 Santana Row",
            "city": "San Jose",
            "state": "CA",
            "country": "United States",
            "zip": "95128",
            "latitude": 37.322665070971,
            "longitude": -121.94795004147
         },
         "id": "142204672511263"
      },
      {
         "name": "The Counter - Santana Row",
         "category": "Restaurant/cafe",
         "location": {
            "street": "3055 Olin Avenue",
            "city": "San Jose",
            "state": "CA",
            "country": "United States",
            "zip": "95128",
            "latitude": 37.32081312755,
            "longitude": -121.94880447976
         },
         "id": "132408550099"
      },
      {
         "name": "Sino - Santana Row",
         "category": "Bar",
         "location": {
            "street": "377 Santana Row, Suite 1000",
            "city": "San Jose",
            "state": "CA",
            "country": "United States",
            "zip": "95122",
            "latitude": 37.31996236019,
            "longitude": -121.94797249926
         },
         "id": "105059980016"
      },
      {
         "name": "Pruneridge Golf Club",
         "category": "Local business",
         "location": {
            "street": "400 North Saratoga Ave.",
            "city": "Santa Clara",
            "state": "CA",
            "country": "United States",
            "zip": "95050",
            "latitude": 37.331502985382,
            "longitude": -121.96380355688
         },
         "id": "151220608242862"
      },
      {
         "name": "Club One Fitness - Santana Row",
         "category": "Local business",
         "location": {
            "city": "San Jose",
            "state": "CA",
            "country": "United States",
            "latitude": 37.320817469111,
            "longitude": -121.94885645188
         },
         "id": "146528865378789"
      },
      {
         "name": "Winchester Mystery House",
         "category": "Attractions/things to do",
         "location": {
            "street": "525 S. Winchester Blvd.",
            "city": "San Jose",
            "state": "CA",
            "country": "United States",
            "zip": "95128",
            "latitude": 37.318616547356,
            "longitude": -121.95115955714
         },
         "id": "177074965641254"
      },
      {
         "name": "DSW Shoe Warehouse",
         "category": "Local business",
         "location": {
            "street": "3530 Stevens Creek Blvd",
            "city": "San Jose",
            "state": "CA",
            "country": "United States",
            "zip": "95117-1044",
            "latitude": 37.322731438257,
            "longitude": -121.96069547453
         },
         "id": "107033916020867"
      },
      {
         "name": "Barnes and noble",
         "category": "Local business",
         "location": {
            "city": "San Jose",
            "state": "CA",
            "country": "United States",
            "latitude": 37.322791661464,
            "longitude": -121.96340586559
         },
         "id": "148090048592878"
      },
      {
         "name": "A Slice of New York",
         "category": "Restaurant/cafe",
         "location": {
            "street": "3443 Stevens Creek Blvd.",
            "city": "San Jose",
            "state": "CA",
            "country": "United States",
            "zip": "95117",
            "latitude": 37.323436503675,
            "longitude": -121.95901738477
         },
         "id": "97815817993"
      },
      {
         "name": "Friends of Stevens Creek Barnes & Noble #1944",
         "category": "Local business",
         "location": {
            "street": "3600 Stevens Creek Blvd",
            "city": "San Jose",
            "state": "CA",
            "country": "United States",
            "zip": "95117",
            "latitude": 37.322963,
            "longitude": -121.964373
         },
         "id": "117796834927167"
      },
      {
         "name": "JJ's Blues",
         "category": "Club",
         "location": {
            "street": "3439 stevens creek blvd",
            "city": "San Jose",
            "state": "CA",
            "country": "United States",
            "latitude": 37.323588864064,
            "longitude": -121.95896617225
         },
         "id": "207649048716"
      },
      {
         "name": "Maggiano's Little Italy",
         "category": "Local business",
         "location": {
            "street": "3055 Olin Avenue, Suite 1000",
            "city": "San Jose",
            "state": "CA",
            "country": "United States",
            "zip": "95128",
            "latitude": 37.320689457724,
            "longitude": -121.94930902357
         },
         "id": "153597007985525"
      },
      {
         "name": "Starbucks",
         "category": "Local business",
         "location": {
            "city": "Santa Clara",
            "state": "CA",
            "country": "United States",
            "zip": "95050",
            "latitude": 37.328325883185,
            "longitude": -121.96587884533
         },
         "id": "101048349955589"
      },
      {
         "name": "ROUX LOUISIANA",
         "category": "Local business",
         "location": {
            "street": "3055 Olin Ave",
            "city": "San Jose",
            "state": "CA",
            "country": "United States",
            "zip": "95128",
            "latitude": 37.320738822431,
            "longitude": -121.94912994899
         },
         "id": "202897293077200"
      },
      {
         "name": "Straits",
         "category": "Bar",
         "location": {
            "street": "333 Santana Row # 1100",
            "city": "San Jose",
            "state": "CA",
            "country": "United States",
            "zip": "95128",
            "latitude": 37.321778933026,
            "longitude": -121.94798700782
         },
         "id": "60716574253"
      },
      {
         "name": "Pizza Antica",
         "category": "Local business",
         "location": {
            "street": "334 Santana Row Ste 1065",
            "city": "San Jose",
            "state": "CA",
            "country": "United States",
            "zip": "95128",
            "latitude": 37.321778676662,
            "longitude": -121.94790065883
         },
         "id": "205629926146994"
      },
      {
         "name": "Amber India Santana Row",
         "category": "Restaurant/cafe",
         "location": {
            "street": "377 Santana Row, #1140",
            "city": "San Jose",
            "state": "CA",
            "country": "United States",
            "zip": "95129",
            "latitude": 37.321229367898,
            "longitude": -121.94718169631
         },
         "id": "63457400479"
      },
      {
         "name": "Pluto's",
         "category": "Local business",
         "location": {
            "city": "San Jose",
            "state": "CA",
            "country": "United States",
            "latitude": 37.32069098871,
            "longitude": -121.94906641531
         },
         "id": "135188663190371"
      },
      {
         "name": "Century 24",
         "category": "Local business",
         "location": {
            "street": "741 Winchester Blvd.",
            "city": "San Jose",
            "state": "CA",
            "country": "United States",
            "zip": "95128",
            "latitude": 37.316151589288,
            "longitude": -121.95129210427
         },
         "id": "203808029637121"
      },
      {
         "name": "The Lounge",
         "category": "Bar",
         "location": {
            "street": "2368 Pruneridge Ave",
            "city": "Santa Clara",
            "state": "CA",
            "country": "United States",
            "zip": "95050",
            "latitude": 37.329606088002,
            "longitude": -121.96286195751
         },
         "id": "263893647720"
      },
      {
         "name": "BlowFish Santana Row",
         "category": "Club",
         "location": {
            "street": "355 Santana Row # 1010",
            "city": "San Jose",
            "state": "CA",
            "country": "United States",
            "zip": "95128",
            "latitude": 37.321017534214,
            "longitude": -121.94803787314
         },
         "id": "53986841318"
      },
      {
         "name": "Blowfish Sushi To Die For",
         "category": "Restaurant/cafe",
         "location": {
            "street": "355 Santana Row, Suite 1010",
            "city": "San Jose",
            "state": "CA",
            "country": "United States",
            "zip": "95128",
            "latitude": 37.321040274439,
            "longitude": -121.94804487476
         },
         "id": "75290459009"
      },
      {
         "name": "Tinker's Damn",
         "category": "Club",
         "location": {
            "street": "46 N. Saratoga Avenue",
            "city": "Santa Clara",
            "state": "CA",
            "country": "United States",
            "zip": "95051",
            "latitude": 37.323837741745,
            "longitude": -121.96966223928
         },
         "id": "125666864115261"
      },
      {
         "name": "Krung Thai Restaurant",
         "category": "Local business",
         "location": {
            "street": "642 S Winchester Blvd",
            "city": "San Jose",
            "state": "CA",
            "country": "United States",
            "zip": "95128",
            "latitude": 37.317246184514,
            "longitude": -121.94977217346
         },
         "id": "216933594995522"
      },
      {
         "name": "Cocola",
         "category": "Local business",
         "location": {
            "street": "333 Santana Row #1045",
            "city": "San Jose",
            "state": "CA",
            "country": "United States",
            "zip": "95128-2028",
            "latitude": 37.321860270658,
            "longitude": -121.9479379261
         },
         "id": "154161161265884"
      },
      {
         "name": "El Jardin Tequila Bar",
         "category": "Restaurant/cafe",
         "location": {
            "street": "368 Santana Row",
            "city": "San Jose",
            "state": "CA",
            "country": "United States",
            "zip": "95128",
            "latitude": 37.31943486435,
            "longitude": -121.94790063466
         },
         "id": "57202473047"
      },
      {
         "name": "Cheescake Factory at Valley Fair",
         "category": "Local business",
         "location": {
            "street": "3041 Stevens Creek Blvd.",
            "city": "San Jose",
            "state": "CA",
            "country": "United States",
            "zip": "95050",
            "latitude": 37.323914105,
            "longitude": -121.947451405
         },
         "id": "190149424341987"
      },
      {
         "name": "Audi Stevens Creek",
         "category": "Automotive",
         "location": {
            "street": "3350 Stevens Creek Blvd.",
            "city": "San Jose",
            "state": "CA",
            "country": "United States",
            "zip": "95117",
            "latitude": 37.323022859294,
            "longitude": -121.95606855294
         },
         "id": "168613314073"
      },
      {
         "name": "Rosie Mccann's",
         "category": "Bar",
         "location": {
            "street": "355 Santana Row",
            "city": "San Jose",
            "state": "CA",
            "country": "United States",
            "zip": "95128",
            "latitude": 37.320864384692,
            "longitude": -121.94883445415
         },
         "id": "60852531677"
      },
      {
         "name": "Village California Bistro and Wine Bar",
         "category": "Restaurant/cafe",
         "location": {
            "street": "378 Santana Row, #1035",
            "city": "San Jose",
            "state": "CA",
            "country": "United States",
            "zip": "95128",
            "latitude": 37.319911260849,
            "longitude": -121.94794812515
         },
         "id": "95909532373"
      },
      {
         "name": "Wahoo's Fish Tacos",
         "category": "Local business",
         "location": {
            "city": "San Jose",
            "state": "CA",
            "country": "United States",
            "latitude": 37.320695942284,
            "longitude": -121.94902109098
         },
         "id": "122296734455097"
      },
      {
         "name": "Garden City Casino",
         "category": "Club",
         "location": {
            "street": "360 S Saratoga Ave.",
            "city": "San Jose",
            "state": "CA",
            "country": "United States",
            "zip": "95129",
            "latitude": 37.321487571896,
            "longitude": -121.9701000687
         },
         "id": "105219606186369"
      },
      {
         "name": "Vintage Wine Bar - Santana Row",
         "category": "Bar",
         "location": {
            "street": "368 Santana Row #1040",
            "city": "San Jose",
            "state": "CA",
            "country": "United States",
            "zip": "95128",
            "latitude": 37.319965589053,
            "longitude": -121.94790299922
         },
         "id": "366336458601"
      },
      {
         "name": "Pinkberry Santana Row",
         "category": "Local business",
         "location": {
            "street": "368 Santana Row",
            "city": "San Jose",
            "state": "CA",
            "country": "United States",
            "zip": "95128",
            "latitude": 37.322222906012,
            "longitude": -121.94493185035
         },
         "id": "120331214726195"
      },
      {
         "name": "Limon Salon",
         "category": "Local business",
         "location": {
            "street": "3410 Stevens Creek Blvd.  Ste 101",
            "city": "San Jose",
            "state": "CA",
            "country": "United States",
            "zip": "95117",
            "latitude": 37.323098261539,
            "longitude": -121.95861227547
         },
         "id": "29675463219"
      },
      {
         "name": "pasta pomodoro santana row",
         "category": "Local business",
         "location": {
            "street": "378 Santana Row",
            "city": "San Jose",
            "state": "CA",
            "country": "United States",
            "zip": "95128",
            "latitude": 37.319268814597,
            "longitude": -121.94771957916
         },
         "id": "136724396390316"
      },
      {
         "name": "Harry's Hofbrau San Jose",
         "category": "Restaurant/cafe",
         "location": {
            "street": "390 saratoga ave",
            "city": "San Jose",
            "state": "CA",
            "country": "United States",
            "zip": "95129",
            "latitude": 37.32089316785,
            "longitude": -121.97086306771
         },
         "id": "143417649033860"
      },
      {
         "name": "Westfield Shopping Center",
         "category": "Local business",
         "location": {
            "street": "2855 Stevens Creek Blvd",
            "city": "Santa Clara",
            "state": "CA",
            "country": "United States",
            "zip": "95050",
            "latitude": 37.325283403079,
            "longitude": -121.94582493022
         },
         "id": "141757732514535"
      },
      {
         "name": "New Krung Thai Restaurant",
         "category": "Local business",
         "location": {
            "street": "580 N Winchester Blvd",
            "city": "San Jose",
            "state": "CA",
            "country": "United States",
            "zip": "95128-1530",
            "latitude": 37.327560310781,
            "longitude": -121.94995425798
         },
         "id": "164704303541348"
      },
      {
         "name": "Apple Store",
         "category": "Local business",
         "location": {
            "street": "2855 Stevens Creek Blvd Suite 1025",
            "city": "San Jose",
            "state": "CA",
            "country": "United States",
            "zip": "95050",
            "latitude": 37.325508492932,
            "longitude": -121.94627694225
         },
         "id": "121348107913761"
      },
      {
         "name": "nordstrom ebar",
         "category": "Local business",
         "location": {
            "street": "2400 Forest Avenue",
            "city": "San Jose",
            "state": "CA",
            "country": "United States",
            "zip": "95128",
            "latitude": 37.326112482031,
            "longitude": -121.9467830087
         },
         "id": "110677275658486"
      },
      {
         "name": "Flames Coffee Shop Winchester",
         "category": "Local business",
         "location": {
            "street": "449 S Winchester Blvd",
            "city": "San Jose",
            "state": "CA",
            "country": "United States",
            "zip": "95128-2535",
            "latitude": 37.31943256122,
            "longitude": -121.95155466128
         },
         "id": "117610761599419"
      },
      {
         "name": "Winchester 22",
         "category": "Movie theater",
         "location": {
            "street": "3162 Olin Drive",
            "city": "San Jose",
            "state": "CA",
            "country": "United States",
            "zip": "95117",
            "latitude": 37.320071732802,
            "longitude": -121.95229176375
         },
         "id": "148846285133157"
      },
      {
         "name": "Siam Fine Thai Cuisine",
         "category": "Local business",
         "location": {
            "street": "2910 Stevens Creek Blvd",
            "city": "San Jose",
            "state": "CA",
            "country": "United States",
            "zip": "95128-2015",
            "latitude": 37.323216313492,
            "longitude": -121.94590917555
         },
         "id": "121346391213490"
      },
      {
         "name": "Ramen Halu",
         "category": "Local business",
         "location": {
            "street": "375 Saratoga Ave Ste M",
            "city": "San Jose",
            "state": "CA",
            "country": "United States",
            "zip": "95129-1339",
            "latitude": 37.321666964699,
            "longitude": -121.971668802
         },
         "id": "109554272413877"
      },
      {
         "name": "GameStop",
         "category": "Local business",
         "location": {
            "street": "3580 Stevens Creek Blvd",
            "city": "San Jose, California",
            "zip": "95117",
            "latitude": 37.32325,
            "longitude": -121.9622619
         },
         "id": "259136390793676"
      },
      {
         "name": "Rosie McCann's Irish Pub & Restaurant",
         "category": "Bar",
         "location": {
            "street": "355 Santana Row # 1060",
            "city": "San Jose",
            "state": "CA",
            "country": "United States",
            "zip": "95128",
            "latitude": 37.320836626667,
            "longitude": -121.94883341938
         },
         "id": "79260112446"
      },
      {
         "name": "Parkway Park",
         "category": "Local business",
         "location": {
            "city": "Santa Clara",
            "state": "CA",
            "country": "United States",
            "latitude": 37.326704206094,
            "longitude": -121.96430372198
         },
         "id": "150581644958900"
      },
      {
         "name": "Chipotle Santana Row",
         "category": "Local business",
         "location": {
            "street": "369 S. Winchester Blvd",
            "city": "San Jose, CA",
            "zip": "95128",
            "latitude": 37.321742829997,
            "longitude": -121.95049692033
         },
         "id": "170243669661318"
      },
      {
         "name": "Left Bank Brasserie on Santana Row in San Jose",
         "category": "Restaurant/cafe",
         "location": {
            "street": "377 Santana Row",
            "city": "San Jose",
            "state": "CA",
            "country": "United States",
            "zip": "95128",
            "latitude": 37.319832546475,
            "longitude": -121.94794468298
         },
         "id": "132112616806736"
      },
      {
         "name": "David's Bridal",
         "category": "Local business",
         "location": {
            "street": "3111 Stevens Creek Blvd",
            "city": "San Jose",
            "state": "CA",
            "country": "United States",
            "zip": "95117-1141",
            "latitude": 37.324071898989,
            "longitude": -121.95066622245
         },
         "id": "107382759320143"
      },
      {
         "name": "Chilis Santana Row",
         "category": "Local business",
         "location": {
            "street": "377 Santana Row",
            "city": "San Jose",
            "state": "CA",
            "country": "United States",
            "zip": "95128",
            "latitude": 37.320526825587,
            "longitude": -121.94986590775
         },
         "id": "148103651878035"
      },
      {
         "name": "LB Steak",
         "category": "Restaurant/cafe",
         "location": {
            "street": "334 Santana Row, Suite 1000",
            "city": "San Jose",
            "state": "CA",
            "country": "United States",
            "zip": "95128",
            "latitude": 37.322445702295,
            "longitude": -121.94787957399
         },
         "id": "120469741305733"
      },
      {
         "name": "Straits Santana Row",
         "category": "Local business",
         "location": {
            "street": "333 Santana Row Ste 1100 San Jose, CA ",
            "city": "San Jose",
            "state": "CA",
            "country": "United States",
            "zip": "95128",
            "latitude": 37.32177831333,
            "longitude": -121.9479518505
         },
         "id": "131279150251209"
      },
      {
         "name": "Ohana Board Shop",
         "category": "Shopping/retail",
         "location": {
            "street": "3575 Stevens Creek Blvd",
            "city": "San Jose",
            "state": "CA",
            "country": "United States",
            "zip": "95117",
            "latitude": 37.323337,
            "longitude": -121.962406
         },
         "id": "84731808817"
      },
      {
         "name": "Louis Vuitton- Valley Fair",
         "category": "Local business",
         "location": {
            "city": "San Jose",
            "state": "CA",
            "country": "United States",
            "zip": "95050",
            "latitude": 37.326014166849,
            "longitude": -121.94541779608
         },
         "id": "129371497111385"
      },
      {
         "name": "V Bar",
         "category": "Local business",
         "location": {
            "street": "Santana Row",
            "city": "San Jose",
            "state": "CA",
            "country": "United States",
            "zip": "95128",
            "latitude": 37.321009381498,
            "longitude": -121.94803998104
         },
         "id": "148161598536793"
      },
      {
         "name": "Hotel Valencia Santana Row",
         "category": "Hotel",
         "location": {
            "street": "355 Santana Row",
            "city": "San Jose",
            "state": "CA",
            "country": "United States",
            "zip": "95128",
            "latitude": 37.320964346335,
            "longitude": -121.94826712297
         },
         "id": "40157782615"
      },
      {
         "name": "Club One Health Club and Gym, Santana Row",
         "category": "Local business",
         "location": {
            "city": "Santa Clara",
            "state": "CA",
            "country": "United States",
            "latitude": 37.326374061682,
            "longitude": -121.95948122615
         },
         "id": "192011044153942"
      },
      {
         "name": "Kaama Lounge",
         "category": "Restaurant/cafe",
         "location": {
            "street": "385 S Winchester Blvd. (across from Santana Row--Winchester & Next to Chipotle",
            "city": "San Jose",
            "state": "CA",
            "country": "United States",
            "zip": "95128",
            "latitude": 37.321417292201,
            "longitude": -121.95046125947
         },
         "id": "112423032130363"
      },
      {
         "name": "Yuki Sushi",
         "category": "Local business",
         "location": {
            "street": "1827 Pruneridge Ave",
            "city": "Santa Clara",
            "state": "CA",
            "country": "United States",
            "zip": "95050-6528",
            "latitude": 37.330354457473,
            "longitude": -121.95075234073
         },
         "id": "114207045271191"
      },
      {
         "name": "Hoshi",
         "category": "Local business",
         "location": {
            "street": "246 Saratoga Avenue,",
            "city": "Santa Clara",
            "state": "CA",
            "country": "United States",
            "zip": "95050",
            "latitude": 37.329698123702,
            "longitude": -121.96685665602
         },
         "id": "113948691997954"
      },
      {
         "name": "Starbucks At Santana Row",
         "category": "Local business",
         "location": {
            "city": "San Jose",
            "state": "CA",
            "country": "United States",
            "latitude": 37.32065774468,
            "longitude": -121.94903277354
         },
         "id": "150829421610772"
      },
      {
         "name": "Yumi Yogurt Santa Clara",
         "category": "Restaurant/cafe",
         "location": {
            "street": "3787 Stevens Creek Blvd",
            "city": "Santa Clara",
            "state": "CA",
            "country": "United States",
            "zip": "95051",
            "latitude": 37.323977242291,
            "longitude": -121.96880334243
         },
         "id": "231136766899765"
      },
      {
         "name": "Kara's Cupcakes Santana Row",
         "category": "Local business",
         "location": {
            "street": "Santana Row",
            "city": "San Jose",
            "state": "CA",
            "country": "United States",
            "zip": "95128",
            "latitude": 37.320644069576,
            "longitude": -121.94903671072
         },
         "id": "168124986576456"
      },
      {
         "name": "Thea Mediterranean",
         "category": "Restaurant/cafe",
         "location": {
            "street": "3090 Olsen Drive, Santana Row",
            "city": "San Jose",
            "state": "CA",
            "country": "United States",
            "zip": "95128",
            "latitude": 37.319291668454,
            "longitude": -121.94854051172
         },
         "id": "68661467482"
      },
      {
         "name": "Khanh's Restaurant",
         "category": "Restaurant/cafe",
         "location": {
            "street": "335 South Winchester Blvd.",
            "city": "San Jose",
            "state": "CA",
            "country": "United States",
            "zip": "95127",
            "latitude": 37.322075038836,
            "longitude": -121.95037590036
         },
         "id": "132586330136430"
      },
      {
         "name": "Courtesy Chevrolet",
         "category": "Local business",
         "location": {
            "street": "3640 Stevens Creek Blvd",
            "city": "San Jose",
            "state": "CA",
            "country": "United States",
            "zip": "95117",
            "latitude": 37.322535855806,
            "longitude": -121.96498410836
         },
         "id": "140103691276"
      },
      {
         "name": "Yardhouse",
         "category": "Local business",
         "location": {
            "street": "Santana Row",
            "city": "San Jose",
            "state": "CA",
            "country": "United States",
            "zip": "95138",
            "latitude": 37.322172466667,
            "longitude": -121.94789036667
         },
         "id": "196709373698956"
      },
      {
         "name": "Macy's",
         "category": "Local business",
         "location": {
            "street": "2801 Stevens Creek Blvd.",
            "city": "Santa Clara",
            "state": "CA",
            "country": "United States",
            "zip": "95050",
            "latitude": 37.324974931108,
            "longitude": -121.94454438664
         },
         "id": "147610775267895"
      },
      {
         "name": "H&M Santana Row",
         "category": "Local business",
         "location": {
            "street": "334 Santana Row Suite 1095",
            "city": "San Jose",
            "state": "CA",
            "country": "United States",
            "zip": "95128",
            "latitude": 37.321586628467,
            "longitude": -121.94790968214
         },
         "id": "142167922489845"
      },
      {
         "name": "Consuelo Mexican Bistro",
         "category": "Restaurant/cafe",
         "location": {
            "street": "377 Santana Row, Suite 1125",
            "city": "San Jose",
            "state": "CA",
            "country": "United States",
            "zip": "95128",
            "latitude": 37.31933635445,
            "longitude": -121.9480020847
         },
         "id": "152359835542"
      },
      {
         "name": "Lavande Nail Spa",
         "category": "Local business",
         "location": {
            "street": "multiple locations",
            "city": "San Jose",
            "state": "CA",
            "country": "United States",
            "zip": "95128",
            "latitude": 37.320621418973,
            "longitude": -121.94829448038
         },
         "id": "303281356339"
      },
      {
         "name": "Frontier Ford",
         "category": "Local business",
         "location": {
            "street": "3701 Stevens Creek Blvd.",
            "city": "Santa Clara",
            "state": "CA",
            "country": "United States",
            "zip": "95051",
            "latitude": 37.323677964248,
            "longitude": -121.96640389657
         },
         "id": "88141812724"
      },
      {
         "name": "Cheese cake factory In San Jose",
         "category": "Local business",
         "location": {
            "street": "3041 Stevens Creek Blvd.",
            "city": "San Jose",
            "state": "CA",
            "country": "United States",
            "zip": "95050",
            "latitude": 37.324234202371,
            "longitude": -121.94729264877
         },
         "id": "143199159059349"
      },
      {
         "name": "Chili's Grill & Bar",
         "category": "Local business",
         "location": {
            "street": "377 Santana Row, Suite 1090",
            "city": "San Jose, California",
            "zip": "95128",
            "latitude": 37.320522233957,
            "longitude": -121.94973373921
         },
         "id": "191378094263209"
      },
      {
         "name": "Applebee's | SARATOGA",
         "category": "Local business",
         "location": {
            "street": "555 Saratoga Ave.",
            "city": "San Jose, California",
            "zip": "95129",
            "latitude": 37.316618692166,
            "longitude": -121.97586234255
         },
         "id": "160272017386946"
      },
      {
         "name": "Yankee Pier Santana Row",
         "category": "Restaurant/cafe",
         "location": {
            "street": "378 Santana Row, Suite 1100",
            "city": "San Jose",
            "state": "CA",
            "country": "United States",
            "zip": "95128",
            "latitude": 37.319826894975,
            "longitude": -121.94795532311
         },
         "id": "135379690183"
      },
      {
         "name": "California Pizza Kitchen",
         "category": "Local business",
         "location": {
            "city": "San Jose",
            "state": "CA",
            "country": "United States",
            "zip": "95050",
            "latitude": 37.32625245312,
            "longitude": -121.94366622296
         },
         "id": "145953738769887"
      },
      {
         "name": "Jack-In-The Box Restaurants",
         "category": "Local business",
         "location": {
            "street": "3395 Stevens Creek Blvd",
            "city": "San Jose",
            "state": "CA",
            "country": "United States",
            "zip": "95117-1038",
            "latitude": 37.323337,
            "longitude": -121.95815
         },
         "id": "113458158687418"
      },
      {
         "name": "Super Buffet At San Jose Inc",
         "category": "Local business",
         "location": {
            "street": "3830 Stevens Creek Blvd",
            "city": "San Jose",
            "state": "CA",
            "country": "United States",
            "zip": "95117-1254",
            "latitude": 37.322386591593,
            "longitude": -121.96896814669
         },
         "id": "118977168116915"
      },
      {
         "name": "Starbucks",
         "category": "Local business",
         "location": {
            "city": "San Jose",
            "state": "CA",
            "country": "United States",
            "zip": "95128",
            "latitude": 37.32103535083,
            "longitude": -121.94776393143
         },
         "id": "148337895194688"
      },
      {
         "name": "Urban Outfitters",
         "category": "Local business",
         "location": {
            "street": "355 Santana Row, #1050",
            "city": "San Jose, California",
            "zip": "95128-2037",
            "latitude": 37.320699108799,
            "longitude": -121.94894877333
         },
         "id": "130873830334858"
      },
      {
         "name": "Golden Mushroom Pizzeria",
         "category": "Local business",
         "location": {
            "street": "202 Saratoga Ave",
            "city": "Santa Clara",
            "state": "CA",
            "country": "United States",
            "zip": "95050-6629",
            "latitude": 37.328301267588,
            "longitude": -121.96591289346
         },
         "id": "119664351377528"
      },
      {
         "name": "Nordstrom Valleyfair Mall",
         "category": "Local business",
         "location": {
            "city": "San Jose",
            "state": "CA",
            "country": "United States",
            "latitude": 37.325829727765,
            "longitude": -121.94691674958
         },
         "id": "147854638600370"
      },
      {
         "name": "Tapioca Express Cafe Alexander",
         "category": "Local business",
         "location": {
            "street": "457 Saratoga Ave",
            "city": "San Jose",
            "state": "CA",
            "country": "United States",
            "zip": "95129-1326",
            "latitude": 37.319670771444,
            "longitude": -121.97458017404
         },
         "id": "117657914927554"
      },
      {
         "name": "Pizza My Heart",
         "category": "Local business",
         "location": {
            "city": "San Jose",
            "state": "CA",
            "country": "United States",
            "zip": "95050-6709",
            "latitude": 37.325243267681,
            "longitude": -121.94687974577
         },
         "id": "143765545663491"
      },
      {
         "name": "Gap",
         "category": "Local business",
         "location": {
            "street": "2855 STEVENS CREEK BLVD",
            "city": "Santa Clara",
            "state": "CA",
            "country": "United States",
            "zip": "95050-6709",
            "latitude": 37.325549533613,
            "longitude": -121.94704954544
         },
         "id": "126260614088673"
      },
      {
         "name": "Home",
         "category": "Local business",
         "location": {
            "city": "San Jose",
            "state": "CA",
            "country": "United States",
            "latitude": 37.319273594126,
            "longitude": -121.97800800096
         },
         "id": "101601989901638"
      },
      {
         "name": "Sinos",
         "category": "Local business",
         "location": {
            "city": "San Jose",
            "state": "CA",
            "country": "United States",
            "latitude": 37.320007981462,
            "longitude": -121.94798302342
         },
         "id": "142948909081660"
      },
      {
         "name": "Peet's Coffee & Tea-Santana Row",
         "category": "Restaurant/cafe",
         "location": {
            "street": "377 Santana Row ",
            "city": "San Jose",
            "state": "CA",
            "country": "United States",
            "zip": "95128",
            "latitude": 37.31917467305,
            "longitude": -121.94842620295
         },
         "id": "192549267456161"
      },
      {
         "name": "Lexus of Stevens Creek",
         "category": "Local business",
         "location": {
            "street": "3333 Stevens Creek Blvd (Service located at 300 Martin Ave.)",
            "city": "San Jose",
            "state": "CA",
            "country": "United States",
            "zip": "95117",
            "latitude": 37.323508043883,
            "longitude": -121.95687960017
         },
         "id": "67195388211"
      },
      {
         "name": "harv's carwash",
         "category": "Local business",
         "location": {
            "latitude": 37.3237515,
            "longitude": -121.96484288333
         },
         "id": "264425263598437"
      },
      {
         "name": "Northern Dental Care",
         "category": "Local business",
         "location": {
            "street": "122 Saratoga Ave",
            "city": "Santa Clara",
            "state": "CA",
            "country": "United States",
            "zip": "95051-7305",
            "latitude": 37.325367,
            "longitude": -121.967852
         },
         "id": "100497720011775"
      },
      {
         "name": "Vbar at Hotel Valencia",
         "category": "Bar",
         "location": {
            "street": "355 Santana Row (Hotel Valencia)",
            "city": "San Jose",
            "state": "CA",
            "country": "United States",
            "zip": "95128",
            "latitude": 37.321020257148,
            "longitude": -121.94808097716
         },
         "id": "48353254509"
      },
      {
         "name": "Coffee Factory",
         "category": "Local business",
         "location": {
            "street": "3787 Stevens Creek Blvd",
            "city": "Santa Clara",
            "state": "CA",
            "country": "United States",
            "zip": "95051-7369",
            "latitude": 37.323237,
            "longitude": -121.9676
         },
         "id": "131694053541888"
      },
      {
         "name": "Orchard Glen Apartments",
         "category": "Real estate",
         "location": {
            "street": "101 Saratoga Avenue ",
            "city": "Santa Clara",
            "state": "CA",
            "country": "United States",
            "zip": "95051",
            "latitude": 37.32583047451,
            "longitude": -121.96626207277
         },
         "id": "118327238244835"
      },
      {
         "name": "Guitar Center",
         "category": "Local business",
         "location": {
            "latitude": 37.32404,
            "longitude": -121.96542
         },
         "id": "299745346703207"
      },
      {
         "name": "Tiffany & Co",
         "category": "Local business",
         "location": {
            "street": "2855 Stevens Creek Blvd",
            "city": "Santa Clara",
            "state": "CA",
            "country": "United States",
            "zip": "95050",
            "latitude": 37.326202918778,
            "longitude": -121.94470074631
         },
         "id": "133084973402757"
      },
      {
         "name": "St. Claire Cadillac",
         "category": "Automotive",
         "location": {
            "street": "3737 Stevens Creek Blvd",
            "city": "Santa Clara",
            "state": "CA",
            "country": "United States",
            "zip": "95051",
            "latitude": 37.323704409712,
            "longitude": -121.96775613456
         },
         "id": "79875776627"
      },
      {
         "name": "Lucky",
         "category": "Local business",
         "location": {
            "street": "234 Saratoga Ave",
            "city": "Santa Clara",
            "state": "CA",
            "country": "United States",
            "zip": "95050-6629",
            "latitude": 37.329149098246,
            "longitude": -121.96625291204
         },
         "id": "118066451538898"
      },
      {
         "name": "Snap FItness 24-7 Santa Clara",
         "category": "Sports/recreation/activities",
         "location": {
            "street": "60 N. Winchester Blvd. #8",
            "city": "Santa Clara",
            "state": "CA",
            "country": "United States",
            "zip": "95050",
            "latitude": 37.324315293908,
            "longitude": -121.95100090193
         },
         "id": "317469619368"
      },
      {
         "name": "New York pizza",
         "category": "Local business",
         "location": {
            "city": "San Jose",
            "state": "CA",
            "country": "United States",
            "latitude": 37.323464155197,
            "longitude": -121.95900321007
         },
         "id": "190067461010274"
      },
      {
         "name": "Bevmo",
         "category": "Local business",
         "location": {
            "city": "San Jose",
            "state": "CA",
            "country": "United States",
            "latitude": 37.323669018483,
            "longitude": -121.95191675097
         },
         "id": "147427231947426"
      },
      {
         "name": "Bellano Coffee",
         "category": "Restaurant/cafe",
         "location": {
            "street": "3985 Stevens Creek Blvd",
            "city": "Santa Clara",
            "state": "CA",
            "country": "United States",
            "zip": "95051",
            "latitude": 37.323614819382,
            "longitude": -121.97252577753
         },
         "id": "32577285940"
      },
      {
         "name": "Soong Soong Restaurant Fat Wok 2",
         "category": "Local business",
         "location": {
            "street": "3680 Stevens Creek Blvd Ste C",
            "city": "San Jose",
            "state": "CA",
            "country": "United States",
            "zip": "95117-1205",
            "latitude": 37.322963,
            "longitude": -121.96558
         },
         "id": "115661991789223"
      },
      {
         "name": "Taco Bell",
         "category": "Local business",
         "location": {
            "street": "3690 Stevens Creek Blvd",
            "city": "San Jose",
            "state": "CA",
            "country": "United States",
            "zip": "95117-1252",
            "latitude": 37.322879926587,
            "longitude": -121.96592553085
         },
         "id": "113610322005210"
      },
      {
         "name": "White Shallot",
         "category": "Restaurant/cafe",
         "location": {
            "street": "3143 Stevens Creek Blvd.",
            "city": "San Jose",
            "state": "CA",
            "country": "United States",
            "zip": "95117",
            "latitude": 37.323933610522,
            "longitude": -121.95170986025
         },
         "id": "34874068852"
      },
      {
         "name": "McDonald's",
         "category": "Local business",
         "location": {
            "street": "3895 Stevens Creek Blvd",
            "city": "Santa Clara",
            "state": "CA",
            "country": "United States",
            "zip": "95051-7336",
            "latitude": 37.32354789432,
            "longitude": -121.96907321548
         },
         "id": "119060808108187"
      },
      {
         "name": "Nordstrom Cafe Bistro",
         "category": "Local business",
         "location": {
            "latitude": 37.322714,
            "longitude": -121.965633
         },
         "id": "162274280499978"
      },
      {
         "name": "Four-Five-Six Chinese Restaurant",
         "category": "Local business",
         "location": {
            "street": "2362 Pruneridge Ave",
            "city": "Santa Clara",
            "state": "CA",
            "country": "United States",
            "zip": "95050-6433",
            "latitude": 37.329650502131,
            "longitude": -121.9624693573
         },
         "id": "111744672189262"
      },
      {
         "name": "Kayla Nails",
         "category": "Local business",
         "location": {
            "street": "3680 Stevens Creek Blvd",
            "city": "San Jose, CA",
            "zip": "95117",
            "latitude": 37.322422507843,
            "longitude": -121.96546926986
         },
         "id": "110202059071119"
      },
      {
         "name": "Le Papillon Restaurant and Catering",
         "category": "Restaurant/cafe",
         "location": {
            "street": "410 Saratoga Ave.",
            "city": "San Jose",
            "state": "CA",
            "country": "United States",
            "zip": "95129",
            "latitude": 37.319789884331,
            "longitude": -121.97232670846
         },
         "id": "111724325524537"
      },
      {
         "name": "Hot stuff",
         "category": "Local business",
         "location": {
            "city": "Santa Clara",
            "state": "CA",
            "country": "United States",
            "latitude": 37.323811222265,
            "longitude": -121.96962433331
         },
         "id": "150524781648297"
      },
      {
         "name": "Happi House Restaurant",
         "category": "Local business",
         "location": {
            "street": "397 Saratoga Ave",
            "city": "San Jose",
            "state": "CA",
            "country": "United States",
            "zip": "95129-1325",
            "latitude": 37.320409,
            "longitude": -121.972429
         },
         "id": "116670678357851"
      },
      {
         "name": "Henry Schmidt Park",
         "category": "Local business",
         "location": {
            "city": "Santa Clara",
            "state": "CA",
            "country": "United States",
            "latitude": 37.3363889,
            "longitude": -121.9602778
         },
         "id": "150387274973590"
      },
      {
         "name": "Century 23",
         "category": "Local business",
         "location": {
            "street": "3164 Olsen Dr.",
            "city": "San Jose",
            "state": "CA",
            "country": "United States",
            "zip": "95117",
            "latitude": 37.318242099143,
            "longitude": -121.95251802256
         },
         "id": "113322405392508"
      },
      {
         "name": "Best Buy Santana Row",
         "category": "Local business",
         "location": {
            "street": "3090 Stevens Creek Blvd",
            "city": "San Jose",
            "state": "CA",
            "country": "United States",
            "zip": "95128",
            "latitude": 37.323080891203,
            "longitude": -121.94957816282
         },
         "id": "93352875409"
      },
      {
         "name": "Carls Junior Restaurants",
         "category": "Local business",
         "location": {
            "street": "270 Saratoga Ave",
            "city": "Santa Clara",
            "state": "CA",
            "country": "United States",
            "zip": "95050-6629",
            "latitude": 37.329243002683,
            "longitude": -121.96550639299
         },
         "id": "115182925167236"
      },
      {
         "name": "Bestbuy",
         "category": "Local business",
         "location": {
            "city": "San Jose",
            "state": "CA",
            "country": "United States",
            "latitude": 37.323049196976,
            "longitude": -121.94948164864
         },
         "id": "178589482175544"
      },
      {
         "name": "Bijan Bakery & Cafe",
         "category": "Local business",
         "location": {
            "street": "441 Saratoga Ave",
            "city": "San Jose",
            "state": "CA",
            "country": "United States",
            "zip": "95129-1326",
            "latitude": 37.319968655889,
            "longitude": -121.9744607222
         },
         "id": "111683058863442"
      },
      {
         "name": "Westwood Elementary School",
         "category": "Local business",
         "location": {
            "city": "Santa Clara",
            "state": "CA",
            "country": "United States",
            "latitude": 37.333128777765,
            "longitude": -121.96079026868
         },
         "id": "141923545841587"
      },
      {
         "name": "Australian Tan-Saratoga",
         "category": "Spas/beauty/personal care",
         "location": {
            "street": "455 Saratoga Avenue",
            "city": "San Jose",
            "state": "CA",
            "country": "United States",
            "zip": "95129",
            "latitude": 37.319785372197,
            "longitude": -121.97440907818
         },
         "id": "169625986394774"
      },
      {
         "name": "Tesla Santana Row",
         "category": "Automotive",
         "location": {
            "street": "333 Santana Row, Suite 1035",
            "city": "San Jose",
            "state": "CA",
            "country": "United States",
            "zip": "95128",
            "latitude": 37.321972399363,
            "longitude": -121.94791879681
         },
         "id": "204673226230520"
      },
      {
         "name": "Wienerschnitzel",
         "category": "Local business",
         "location": {
            "street": "75 Saratoga Ave",
            "city": "Santa Clara",
            "state": "CA",
            "country": "United States",
            "zip": "95051-7302",
            "latitude": 37.324524194399,
            "longitude": -121.96849781481
         },
         "id": "115508165142674"
      },
      {
         "name": "Towneplace Suites San Jose Cupertino",
         "category": "Local business",
         "location": {
            "street": "440 Saratoga Ave",
            "city": "San Jose",
            "state": "CA",
            "country": "United States",
            "zip": "95129-1332",
            "latitude": 37.318777,
            "longitude": -121.973393
         },
         "id": "104952099548328"
      },
      {
         "name": "Stevens Creek Toyota",
         "category": "Automotive",
         "location": {
            "street": "4202 Stevens Creek Blvd",
            "city": "San Jose",
            "state": "CA",
            "country": "United States",
            "zip": "95129",
            "latitude": 37.322722314721,
            "longitude": -121.97597981039
         },
         "id": "73646159582"
      },
      {
         "name": "MINI of Steven's Creek",
         "category": "Local business",
         "location": {
            "street": "4201 Stevens Creek Blvd.",
            "city": "Santa Clara",
            "state": "CA",
            "country": "United States",
            "zip": "95051",
            "latitude": 37.323700780054,
            "longitude": -121.97565070207
         },
         "id": "168871823158653"
      },
      {
         "name": "Inspa Santana Row",
         "category": "Local business",
         "location": {
            "street": "377 Santana Row Ste 1060",
            "city": "San Jose",
            "state": "CA",
            "country": "United States",
            "zip": "95128",
            "latitude": 37.320714902982,
            "longitude": -121.94908669502
         },
         "id": "176961945693537"
      },
      {
         "name": "Stevens Creek Chiropractic",
         "category": "Local business",
         "location": {
            "street": "3591 Stevens Creek Blvd",
            "city": "San Jose",
            "state": "CA",
            "country": "United States",
            "zip": "95117",
            "latitude": 37.32332,
            "longitude": -121.96259
         },
         "id": "129967453681776"
      },
      {
         "name": "W's SALON",
         "category": "Spas/beauty/personal care",
         "location": {
            "street": "377 santana row suite 1070",
            "city": "San Jose",
            "state": "CA",
            "country": "United States",
            "zip": "95128",
            "latitude": 37.320702475098,
            "longitude": -121.94912335962
         },
         "id": "67192032264"
      },
      {
         "name": "Lululemon Athletica Santana Row",
         "category": "Local business",
         "location": {
            "street": "334 Santana Row #1035",
            "city": "San Jose",
            "state": "CA",
            "country": "United States",
            "zip": "95128",
            "latitude": 37.321949,
            "longitude": -121.9478531
         },
         "id": "193506220714002"
      },
      {
         "name": "Pep Boys",
         "category": "Local business",
         "location": {
            "street": "3780 Stevens Creek Blvd",
            "city": "San Jose, California",
            "zip": "95117",
            "latitude": 37.323089187173,
            "longitude": -121.96789619954
         },
         "id": "267116363333166"
      },
      {
         "name": "Q Nails",
         "category": "Local business",
         "location": {
            "city": "Santa Clara",
            "state": "CA",
            "country": "United States",
            "latitude": 37.323985475027,
            "longitude": -121.96859442497
         },
         "id": "146988365331943"
      },
      {
         "name": "Crate and Barrel Santana Row",
         "category": "Local business",
         "location": {
            "street": "301 Santana Row",
            "city": "San Jose, CA",
            "zip": "95128",
            "latitude": 37.322759710475,
            "longitude": -121.94830991014
         },
         "id": "243358032365299"
      },
      {
         "name": "Straights",
         "category": "Local business",
         "location": {
            "city": "San Jose",
            "state": "CA",
            "country": "United States",
            "latitude": 37.322216084817,
            "longitude": -121.94789086949
         },
         "id": "168790316496311"
      },
      {
         "name": "Chevy's Santana Row",
         "category": "Local business",
         "location": {
            "latitude": 37.31689,
            "longitude": -121.95262
         },
         "id": "216931388333416"
      },
      {
         "name": "Premier Car Wash - Stevens Creek Location",
         "category": "Local business",
         "location": {
            "street": "3941 Stevens Creek Blvd",
            "city": "Santa Clara",
            "state": "CA",
            "country": "United States",
            "zip": "95051",
            "latitude": 37.323422998479,
            "longitude": -121.97139954413
         },
         "id": "170368383007871"
      },
      {
         "name": "Ramen Tenma",
         "category": "Restaurant/cafe",
         "location": {
            "street": "487 Saratoga Ave",
            "city": "San Jose",
            "state": "CA",
            "country": "United States",
            "zip": "95129",
            "latitude": 37.318889552898,
            "longitude": -121.97411207696
         },
         "id": "123741254334381"
      },
      {
         "name": "Cohiba Cigar Lounge",
         "category": "Shopping/retail",
         "location": {
            "street": "377 Santana Row Suite #1020",
            "city": "San Jose",
            "state": "CA",
            "country": "United States",
            "zip": "95128",
            "latitude": 37.320313182452,
            "longitude": -121.94786587625
         },
         "id": "225314349241"
      },
      {
         "name": "United States Army Santa Clara Recruiting Station",
         "category": "Government organization",
         "location": {
            "street": "3550 Stevens Creek Blvd Ste 101",
            "city": "San Jose",
            "state": "CA",
            "country": "United States",
            "zip": "95117",
            "latitude": 37.32325,
            "longitude": -121.96149
         },
         "id": "153014354711139"
      },
      {
         "name": "Hertz",
         "category": "Local business",
         "location": {
            "latitude": 37.323362841549,
            "longitude": -121.96138219154
         },
         "id": "108451702576601"
      },
      {
         "name": "Crystal Ballroom Dance Studio",
         "category": "Local business",
         "location": {
            "street": "3595 Stevens Creek Blvd",
            "city": "San Jose",
            "state": "CA",
            "country": "United States",
            "zip": "95117",
            "latitude": 37.32333,
            "longitude": -121.96313
         },
         "id": "146838558687871"
      },
      {
         "name": "Burke Williams Spa",
         "category": "Local business",
         "location": {
            "city": "San Jose",
            "state": "CA",
            "country": "United States",
            "latitude": 37.320823763158,
            "longitude": -121.94807632152
         },
         "id": "206488046029440"
      },
      {
         "name": "The Container Store \u0040 Santana Row",
         "category": "Local business",
         "location": {
            "latitude": 37.3214001,
            "longitude": -121.96123027
         },
         "id": "165081963545433"
      },
      {
         "name": "MAC Cosmetics",
         "category": "Local business",
         "location": {
            "city": "Santa Clara",
            "state": "CA",
            "country": "United States",
            "latitude": 37.325400186617,
            "longitude": -121.94560054947
         },
         "id": "162192960458112"
      },
      {
         "name": "Face to Face Hair Salon",
         "category": "Local business",
         "location": {
            "street": "3575 Stevens Creek Blvd",
            "city": "San Jose",
            "state": "CA",
            "country": "United States",
            "zip": "95117",
            "latitude": 37.32325,
            "longitude": -121.96171
         },
         "id": "163672473883"
      },
      {
         "name": "Faces Plus Skin Spa",
         "category": "Spas/beauty/personal care",
         "location": {
            "street": "351 Saratoga Avenue",
            "city": "Santa Clara",
            "state": "CA",
            "country": "United States",
            "zip": "95050",
            "latitude": 37.330680839097,
            "longitude": -121.96325248597
         },
         "id": "150466628329816"
      },
      {
         "name": "Stevens Creek Subaru",
         "category": "Automotive",
         "location": {
            "street": "3155 Stevens Creek Blvd",
            "city": "San Jose",
            "state": "CA",
            "country": "United States",
            "zip": "95117",
            "latitude": 37.323620362017,
            "longitude": -121.95258935122
         },
         "id": "199431786755109"
      },
      {
         "name": "El Jardin Santana Row - San Jose",
         "category": "Local business",
         "location": {
            "city": "San Jose",
            "state": "CA",
            "country": "United States",
            "latitude": 37.319407130056,
            "longitude": -121.94790109499
         },
         "id": "101261986626909"
      },
      {
         "name": "Cinema At Santana Row",
         "category": "Local business",
         "location": {
            "city": "San Jose",
            "state": "CA",
            "country": "United States",
            "latitude": 37.31918978,
            "longitude": -121.94848412
         },
         "id": "129746670409507"
      },
      {
         "name": "Tony & Alba's Pizza and Pasta",
         "category": "Restaurant/cafe",
         "location": {
            "street": "3137 Stevens Creek Blvd.",
            "city": "San Jose",
            "state": "CA",
            "country": "United States",
            "zip": "95117",
            "latitude": 37.323979935081,
            "longitude": -121.95145015217
         },
         "id": "64168401047"
      },
      {
         "name": "Fantasia at Santana Row",
         "category": "Local business",
         "location": {
            "city": "San Jose",
            "state": "CA",
            "country": "United States",
            "latitude": 37.320430555772,
            "longitude": -121.94762084852
         },
         "id": "183373258373018"
      },
      {
         "name": "Guitar center In San Jose,ca",
         "category": "Local business",
         "location": {
            "city": "San Jose",
            "state": "CA",
            "country": "United States",
            "latitude": 37.322576,
            "longitude": -121.9527
         },
         "id": "122229334521080"
      },
      {
         "name": "Yummy Yogurt",
         "category": "Local business",
         "location": {
            "latitude": 37.324095223943,
            "longitude": -121.96863306677
         },
         "id": "200228910013402"
      },
      {
         "name": "Saratoga Plaza Barbers",
         "category": "Local business",
         "location": {
            "street": "375 Saratoga Ave.,  Ste K",
            "city": "San Jose",
            "state": "CA",
            "country": "United States",
            "zip": "95129",
            "latitude": 37.321562460295,
            "longitude": -121.97172940824
         },
         "id": "137221349654580"
      },
      {
         "name": "Sephora Valley Fair",
         "category": "Local business",
         "location": {
            "street": "2855 Stevens Creek Boulevard, Suite 1061",
            "city": "Santa Clara",
            "state": "CA",
            "country": "United States",
            "zip": "95050",
            "latitude": 37.325496905196,
            "longitude": -121.94458352644
         },
         "id": "138186362875551"
      },
      {
         "name": "IFixers",
         "category": "Professional services",
         "location": {
            "street": "3575 Stevens Creek Blvd unit C",
            "city": "San Jose",
            "state": "CA",
            "country": "United States",
            "zip": "95117",
            "latitude": 37.32325,
            "longitude": -121.96166708466
         },
         "id": "172808839409742"
      },
      {
         "name": "Round Table Pizza",
         "category": "Local business",
         "location": {
            "street": "3253 Stevens Creek Blvd",
            "city": "San Jose",
            "state": "CA",
            "country": "United States",
            "zip": "95117-1145",
            "latitude": 37.323516480439,
            "longitude": -121.95440936729
         },
         "id": "100866436624494"
      },
      {
         "name": "Alvarez Park",
         "category": "Local business",
         "location": {
            "city": "Santa Clara",
            "state": "CA",
            "country": "United States",
            "latitude": 37.3332751,
            "longitude": -121.9563465
         },
         "id": "131066740271490"
      },
      {
         "name": "Jeff Jenkins DC",
         "category": "Doctor",
         "location": {
            "street": "3591 Stevens Creek Blvd",
            "city": "San Jose",
            "state": "CA",
            "country": "United States",
            "zip": "95117",
            "latitude": 37.32332,
            "longitude": -121.96259
         },
         "id": "222365231129982"
      },
      {
         "name": "Taqueria Salsa Brava",
         "category": "Local business",
         "location": {
            "street": "375 Saratoga Ave Ste E",
            "city": "San Jose",
            "state": "CA",
            "country": "United States",
            "zip": "95129-1339",
            "latitude": 37.321323149342,
            "longitude": -121.97191663787
         },
         "id": "111719555532516"
      },
      {
         "name": "Family Spa",
         "category": "Local business",
         "location": {
            "city": "Santa Clara",
            "state": "CA",
            "country": "United States",
            "latitude": 37.324612105,
            "longitude": -121.96951946
         },
         "id": "149675081756511"
      },
      {
         "name": "Fireside Caffe",
         "category": "Restaurant/cafe",
         "location": {
            "street": "3247 Stevens Creek Blvd.",
            "city": "San Jose",
            "state": "CA",
            "country": "United States",
            "zip": "95117",
            "latitude": 37.323558708233,
            "longitude": -121.95407807233
         },
         "id": "157539950973402"
      },
      {
         "name": "Harry's Hoffbrau",
         "category": "Local business",
         "location": {
            "latitude": 37.3233,
            "longitude": -121.96403
         },
         "id": "208599275862260"
      },
      {
         "name": "Jack Inthe Box",
         "category": "Local business",
         "location": {
            "street": "3395 Stevens Creek Blvd                  Attn Larry Jones",
            "city": "San Jose, CA",
            "zip": "95117",
            "latitude": 37.323290401276,
            "longitude": -121.95849387386
         },
         "id": "129438163802434"
      },
      {
         "name": "Pizza Antica Santana Row",
         "category": "Local business",
         "location": {
            "city": "Santa Clara",
            "state": "CA",
            "country": "United States",
            "latitude": 37.328416,
            "longitude": -121.951072
         },
         "id": "148932011838191"
      },
      {
         "name": "Taxmasters",
         "category": "Local business",
         "location": {
            "street": "3550 Stevens Creek Blvd",
            "city": "San Jose, CA",
            "zip": "95117",
            "latitude": 37.32325,
            "longitude": -121.96149
         },
         "id": "151881741551473"
      },
      {
         "name": "SY Associates",
         "category": "Local business",
         "location": {
            "street": "3550 Stevens Creek Blvd #305",
            "city": "San Jose",
            "state": "CA",
            "country": "United States",
            "zip": "95117",
            "latitude": 37.32325,
            "longitude": -121.96149
         },
         "id": "126338894906"
      },
      {
         "name": "Contractor State License Schools",
         "category": "Local business",
         "location": {
            "street": "3410 Stevens Creek Blvd Ste BI",
            "city": "San Jose",
            "state": "CA",
            "country": "United States",
            "zip": "95117-1058",
            "latitude": 37.322963,
            "longitude": -121.958977
         },
         "id": "115480225144444"
      },
      {
         "name": "Australian Products Co.",
         "category": "Local business",
         "location": {
            "street": "3680 Stevens Creek Blvd",
            "city": "San Jose",
            "state": "CA",
            "country": "United States",
            "zip": "95117",
            "latitude": 37.323095472707,
            "longitude": -121.96533563526
         },
         "id": "98920464173"
      },
      {
         "name": "Rosie's",
         "category": "Local business",
         "location": {
            "city": "San Jose",
            "state": "CA",
            "country": "United States",
            "latitude": 37.320871947842,
            "longitude": -121.94874416625
         },
         "id": "108485595890998"
      },
      {
         "name": "The Frat house",
         "category": "Local business",
         "location": {
            "city": "San Jose",
            "state": "CA",
            "country": "United States",
            "latitude": 37.319474833333,
            "longitude": -121.96316053333
         },
         "id": "103294119730095"
      },
      {
         "name": "The Cheesecake Factory",
         "category": "Local business",
         "location": {
            "latitude": 37.3290675,
            "longitude": -121.9480413
         },
         "id": "204460052944386"
      },
      {
         "name": "Gloria's Taqueria",
         "category": "Local business",
         "location": {
            "street": "469 Saratoga Ave",
            "city": "Santa Clara",
            "state": "CA",
            "country": "United States",
            "zip": "95050-5634",
            "latitude": 37.319441170299,
            "longitude": -121.97481637931
         },
         "id": "117316398287047"
      },
      {
         "name": "Motava",
         "category": "Internet/software",
         "location": {
            "street": "3575 Stevens Creek Blvd, Suite G",
            "city": "San Jose",
            "state": "CA",
            "country": "United States",
            "zip": "95117",
            "latitude": 37.32325,
            "longitude": -121.96171
         },
         "id": "191577857529466"
      },
      {
         "name": "Baskin-Robbins 31 Ice Cream Stores",
         "category": "Local business",
         "location": {
            "street": "2467 Forest Ave",
            "city": "San Jose",
            "state": "CA",
            "country": "United States",
            "zip": "95128-1506",
            "latitude": 37.327249596708,
            "longitude": -121.94920952989
         },
         "id": "109559655747318"
      },
      {
         "name": "Winchester 23",
         "category": "Movie theater",
         "location": {
            "street": "3164 Olsen Drive",
            "city": "San Jose",
            "state": "CA",
            "country": "United States",
            "zip": "95117",
            "latitude": 37.318154806138,
            "longitude": -121.95257162404
         },
         "id": "147969765231403"
      },
      {
         "name": "Burger Barn",
         "category": "Local business",
         "location": {
            "street": "2485 Forest Ave",
            "city": "San Jose",
            "state": "CA",
            "country": "United States",
            "zip": "95128-1506",
            "latitude": 37.327072,
            "longitude": -121.949861
         },
         "id": "108124415895744"
      },
      {
         "name": "Porsche Stevens Creek",
         "category": "Automotive",
         "location": {
            "street": "4155 Stevens Creek Blvd",
            "city": "Santa Clara",
            "state": "CA",
            "country": "United States",
            "zip": "95051",
            "latitude": 37.323734374758,
            "longitude": -121.97442519929
         },
         "id": "113279665377843"
      },
      {
         "name": "Valley fair mall",
         "category": "Local business",
         "location": {
            "city": "San Jose",
            "state": "CA",
            "country": "United States",
            "latitude": 37.32316,
            "longitude": -121.963704
         },
         "id": "214589498556780"
      },
      {
         "name": "Jennifer Convertible",
         "category": "Local business",
         "location": {
            "latitude": 37.322828231833,
            "longitude": -121.96148676962
         },
         "id": "125327424219120"
      },
      {
         "name": "The Container Store San Jose",
         "category": "Local business",
         "location": {
            "street": "3080 Stevens Creek Blvd., Suite 1000",
            "city": "San Jose, CA, California",
            "zip": "95128-2072",
            "latitude": 37.322804807784,
            "longitude": -121.94878076469
         },
         "id": "256400944389788"
      },
      {
         "name": "Tds",
         "category": "Local business",
         "location": {
            "city": "Santa Clara",
            "state": "CA",
            "country": "United States",
            "latitude": 37.323691165699,
            "longitude": -121.96981641723
         },
         "id": "192851097418658"
      },
      {
         "name": "AMC cupertino",
         "category": "Local business",
         "location": {
            "latitude": 37.32358,
            "longitude": -121.95786
         },
         "id": "116160878475545"
      },
      {
         "name": "Windchester Mansion",
         "category": "Local business",
         "location": {
            "street": "525 S. Winchester Blvd.",
            "city": "San Jose",
            "state": "CA",
            "country": "United States",
            "zip": "95128",
            "latitude": 37.31884294,
            "longitude": -121.9512121
         },
         "id": "147161418678857"
      },
      {
         "name": "Tinkers Damn",
         "category": "Local business",
         "location": {
            "city": "Santa Clara",
            "state": "CA",
            "country": "United States",
            "latitude": 37.331468,
            "longitude": -121.95781
         },
         "id": "124980017562768"
      },
      {
         "name": "7-Eleven",
         "category": "Local business",
         "location": {
            "street": "3500 STEVENS CREEK BLVD",
            "city": "San Jose, CA",
            "zip": "951171028",
            "latitude": 37.32285,
            "longitude": -121.96031
         },
         "id": "243202169055850"
      },
      {
         "name": "Arby's",
         "category": "Local business",
         "location": {
            "street": "3158 Stevens Creek Blvd",
            "city": "San Jose",
            "state": "CA",
            "country": "United States",
            "zip": "95117",
            "latitude": 37.323082968191,
            "longitude": -121.95281314648
         },
         "id": "191461934208708"
      },
      {
         "name": "Counter Burger Santana Row",
         "category": "Local business",
         "location": {
            "street": "3055 Olin Avenue Suite 1035",
            "city": "San Jose",
            "state": "CA",
            "country": "United States",
            "zip": "95128",
            "latitude": 37.32088790824,
            "longitude": -121.94880380448
         },
         "id": "117381818316594"
      },
      {
         "name": "Courtesy Chevrolet of Northern California",
         "category": "Automotive",
         "location": {
            "street": "3640 Stevens Creek Boulevard",
            "city": "San Jose",
            "state": "CA",
            "country": "United States",
            "zip": "95117",
            "latitude": 37.32315,
            "longitude": -121.96504
         },
         "id": "126678207370038"
      },
      {
         "name": "Toyota",
         "category": "Local business",
         "location": {
            "city": "San Jose",
            "state": "CA",
            "country": "United States",
            "latitude": 37.322404613017,
            "longitude": -121.97624278625
         },
         "id": "149419098412185"
      },
      {
         "name": "The Vitamin Shoppe",
         "category": "Local business",
         "location": {
            "street": "3150 Stevens Creek Blvd",
            "city": "San Jose",
            "state": "CA",
            "country": "United States",
            "zip": "95117-1142",
            "latitude": 37.322925784267,
            "longitude": -121.95254929139
         },
         "id": "146924742001678"
      },
      {
         "name": "Burberry Limited",
         "category": "Local business",
         "location": {
            "street": "333 Santana Row Ste 1015",
            "city": "San Jose",
            "state": "CA",
            "country": "United States",
            "zip": "95128-2027",
            "latitude": 37.322271143495,
            "longitude": -121.94795847628
         },
         "id": "118866921499094"
      },
      {
         "name": "First church of san jose",
         "category": "Local business",
         "location": {
            "city": "San Jose",
            "state": "CA",
            "country": "United States",
            "latitude": 37.312469572665,
            "longitude": -121.96618912782
         },
         "id": "138701839510384"
      },
      {
         "name": "Lion Saratoga Cal LLC",
         "category": "Local business",
         "location": {
            "street": "471 Saratoga Ave",
            "city": "San Jose",
            "state": "CA",
            "country": "United States",
            "zip": "95129-1326",
            "latitude": 37.318860511876,
            "longitude": -121.97461308542
         },
         "id": "100509383341563"
      },
      {
         "name": "Santana Heights",
         "category": "Local business",
         "location": {
            "city": "San Jose",
            "state": "CA",
            "country": "United States",
            "latitude": 37.320017536076,
            "longitude": -121.94960195471
         },
         "id": "120108434707741"
      },
      {
         "name": "Gucci, Santana Row",
         "category": "Local business",
         "location": {
            "city": "San Jose",
            "state": "CA",
            "country": "United States",
            "latitude": 37.31988,
            "longitude": -121.94908
         },
         "id": "198708790163274"
      },
      {
         "name": "Lucky Foot",
         "category": "Local business",
         "location": {
            "city": "San Jose",
            "state": "CA",
            "country": "United States",
            "latitude": 37.31961603826,
            "longitude": -121.97455546527
         },
         "id": "152425088110016"
      },
      {
         "name": "Westfiels Valley Fair Mall, San Jose California",
         "category": "Local business",
         "location": {
            "latitude": 37.324806,
            "longitude": -121.947908
         },
         "id": "153069528097330"
      },
      {
         "name": "24 Hour Fitness",
         "category": "Local business",
         "location": {
            "latitude": 37.31737,
            "longitude": -121.96043
         },
         "id": "222777724400592"
      },
      {
         "name": "Chilli's Restaurant-Santana Row",
         "category": "Local business",
         "location": {
            "latitude": 37.32008255,
            "longitude": -121.95482075
         },
         "id": "206327296076826"
      },
      {
         "name": "Courtyard Care Center",
         "category": "Local business",
         "location": {
            "city": "San Jose",
            "state": "CA",
            "country": "United States",
            "latitude": 37.321874634444,
            "longitude": -121.96813016111
         },
         "id": "100373643360944"
      },
      {
         "name": "Army surplus",
         "category": "Local business",
         "location": {
            "latitude": 37.323589016667,
            "longitude": -121.9592349
         },
         "id": "147598445335596"
      },
      {
         "name": "Vintage Wine Merchants - Santana Row",
         "category": "Shopping/retail",
         "location": {
            "street": "377 Santana Row #1135",
            "city": "San Jose",
            "state": "CA",
            "country": "United States",
            "zip": "95128",
            "latitude": 37.319365431359,
            "longitude": -121.94830355327
         },
         "id": "369509596701"
      },
      {
         "name": "Kingdom Hall of Jehovahs Witnesses",
         "category": "Local business",
         "location": {
            "city": "San Jose",
            "state": "CA",
            "country": "United States",
            "latitude": 37.3218865,
            "longitude": -121.9655133
         },
         "id": "150705021607579"
      },
      {
         "name": "Cielo",
         "category": "Local business",
         "location": {
            "city": "San Jose",
            "state": "CA",
            "country": "United States",
            "latitude": 37.320948814993,
            "longitude": -121.94858160461
         },
         "id": "149091301793474"
      },
      {
         "name": "Cinemark Thearers on Santana Row",
         "category": "Local business",
         "location": {
            "street": "3088 Olsen Drive",
            "city": "San Jose",
            "state": "CA",
            "country": "United States",
            "zip": "95128",
            "latitude": 37.31901605,
            "longitude": -121.9495188
         },
         "id": "155416557803451"
      },
      {
         "name": "Priscilla of Boston",
         "category": "Local business",
         "location": {
            "city": "San Jose",
            "state": "CA",
            "country": "United States",
            "latitude": 37.321245889467,
            "longitude": -121.9479353828
         },
         "id": "140858609290859"
      },
      {
         "name": "Amber Indian Restaurant",
         "category": "Local business",
         "location": {
            "city": "San Jose",
            "state": "CA",
            "country": "United States",
            "latitude": 37.319227403835,
            "longitude": -121.94844006043
         },
         "id": "201873966509864"
      },
      {
         "name": "CITRUS Restaurant at Hotel Valencia Santana Row",
         "category": "Restaurant/cafe",
         "location": {
            "street": "355 Santana Row ",
            "city": "San Jose",
            "state": "CA",
            "country": "United States",
            "zip": "95128",
            "latitude": 37.320999544545,
            "longitude": -121.94822720073
         },
         "id": "49450931844"
      },
      {
         "name": "The Winchester Mystery House",
         "category": "Local business",
         "location": {
            "street": "525 South Winchester Blvd.",
            "city": "San Jose",
            "state": "CA",
            "country": "United States",
            "latitude": 37.31827,
            "longitude": -121.95012
         },
         "id": "90066299806"
      },
      {
         "name": "Borders santana row",
         "category": "Local business",
         "location": {
            "city": "San Jose",
            "state": "CA",
            "country": "United States",
            "latitude": 37.320427322712,
            "longitude": -121.94785026863
         },
         "id": "116961718366634"
      },
      {
         "name": "Diesel",
         "category": "Local business",
         "location": {
            "city": "San Jose",
            "state": "CA",
            "country": "United States",
            "latitude": 37.320133816667,
            "longitude": -121.94787698333
         },
         "id": "159695340709535"
      },
      {
         "name": "Valley Fair Mall",
         "category": "Local business",
         "location": {
            "city": "Santa Clara",
            "state": "CA",
            "country": "United States",
            "latitude": 37.323860620677,
            "longitude": -121.97302745346
         },
         "id": "151967401481260"
      },
      {
         "name": "Roman Paradigm Massage San Jose",
         "category": "Spas/beauty/personal care",
         "location": {
            "street": "3097 Moorpark Ave #102",
            "city": "San Jose",
            "state": "CA",
            "country": "United States",
            "zip": "95128",
            "latitude": 37.316303720847,
            "longitude": -121.94974005317
         },
         "id": "15430569906"
      },
      {
         "name": "Ben And Jerrys",
         "category": "Local business",
         "location": {
            "city": "San Jose",
            "state": "CA",
            "country": "United States",
            "latitude": 37.31947647505,
            "longitude": -121.94784301115
         },
         "id": "103527283040347"
      },
      {
         "name": "Golfsmith San Jose",
         "category": "Local business",
         "location": {
            "street": "4070 Stevens Creek Blvd",
            "city": "San Jose",
            "state": "CA",
            "country": "United States",
            "zip": "95129",
            "latitude": 37.321943829071,
            "longitude": -121.97293646171
         },
         "id": "183089828394572"
      },
      {
         "name": "Moveable Feast: Garden City",
         "category": "Local business",
         "location": {
            "latitude": 37.320815,
            "longitude": -121.96448
         },
         "id": "225957727465759"
      },
      {
         "name": "Central Computers",
         "category": "Local business",
         "location": {
            "street": "3777 Stevens Creek Boulevard",
            "city": "Santa Clara",
            "state": "CA",
            "country": "United States",
            "zip": "95051",
            "latitude": 37.323550899612,
            "longitude": -121.96789402198
         },
         "id": "452690055594"
      },
      {
         "name": "Goodyear Tires",
         "category": "Local business",
         "location": {
            "city": "San Jose",
            "state": "CA",
            "country": "United States",
            "latitude": 37.322927216667,
            "longitude": -121.95204958333
         },
         "id": "156661384344414"
      },
      {
         "name": "Oakwood apartments",
         "category": "Local business",
         "location": {
            "city": "San Jose",
            "state": "CA",
            "country": "United States",
            "zip": "95129",
            "latitude": 37.32321,
            "longitude": -121.96614
         },
         "id": "140830259322457"
      },
      {
         "name": "Lucky Brand Valley Fair",
         "category": "Local business",
         "location": {
            "street": "2855 Stevens Creek Blvd.",
            "city": "San Jose",
            "state": "CA",
            "country": "United States",
            "zip": "95050",
            "latitude": 37.326363664792,
            "longitude": -121.94533272454
         },
         "id": "204403962910430"
      },
      {
         "name": "Home",
         "category": "Local business",
         "location": {
            "city": "San Jose",
            "state": "CA",
            "country": "United States",
            "latitude": 37.332813633333,
            "longitude": -121.94801143333
         },
         "id": "139142756128006"
      },
      {
         "name": "Mission Skilled Nursing and Sub-Acute Center",
         "category": "Health/medical/pharmacy",
         "location": {
            "street": "410 N Winchester Blvd",
            "city": "Santa Clara",
            "state": "CA",
            "country": "United States",
            "zip": "95050",
            "latitude": 37.33431,
            "longitude": -121.95024
         },
         "id": "146358065410253"
      },
      {
         "name": "Banana Republic",
         "category": "Local business",
         "location": {
            "street": "2855 Stevens Creek Blvd",
            "city": "Santa Clara",
            "state": "CA",
            "country": "United States",
            "zip": "95050-6709",
            "latitude": 37.325761938166,
            "longitude": -121.94589512363
         },
         "id": "154352957911074"
      },
      {
         "name": "Angel Nails",
         "category": "Local business",
         "location": {
            "city": "Santa Clara",
            "state": "CA",
            "country": "United States",
            "latitude": 37.325426609908,
            "longitude": -121.94482371697
         },
         "id": "178465018848838"
      },
      {
         "name": "Los angeles ahhhhh yeaaah",
         "category": "Local business",
         "location": {
            "latitude": 37.326720847864,
            "longitude": -121.95780670074
         },
         "id": "134556739958794"
      },
      {
         "name": "Frontier Infiniti",
         "category": "Automotive",
         "location": {
            "street": "4355 Stevens Creek Blvd",
            "city": "Santa Clara",
            "state": "CA",
            "country": "United States",
            "zip": "95051",
            "latitude": 37.32314,
            "longitude": -121.97883
         },
         "id": "189635817738332"
      },
      {
         "name": "Chevy",
         "category": "Local business",
         "location": {
            "city": "San Jose",
            "state": "CA",
            "country": "United States",
            "latitude": 37.32276798,
            "longitude": -121.96481513444
         },
         "id": "146632905374195"
      },
      {
         "name": "Moveable Feast",
         "category": "Local business",
         "location": {
            "latitude": 37.322514566941,
            "longitude": -121.97025796802
         },
         "id": "119397091501426"
      },
      {
         "name": "Safeway",
         "category": "Local business",
         "location": {
            "city": "San Jose",
            "state": "CA",
            "country": "United States",
            "latitude": 37.324087667431,
            "longitude": -121.94935220557
         },
         "id": "148886998463002"
      },
      {
         "name": "Oilstop",
         "category": "Local business",
         "location": {
            "city": "San Jose",
            "state": "CA",
            "country": "United States",
            "latitude": 37.320420969342,
            "longitude": -121.9713430299
         },
         "id": "148921695126469"
      },
      {
         "name": "Tai Kee Won Ton",
         "category": "Local business",
         "location": {
            "street": "375 Saratoga Ave",
            "city": "San Jose",
            "state": "CA",
            "country": "United States",
            "zip": "95129-1339",
            "latitude": 37.320382,
            "longitude": -121.972587
         },
         "id": "115898481764072"
      },
      {
         "name": "Century 22 Theater \u0040 Wnchester",
         "category": "Local business",
         "location": {
            "city": "San Jose",
            "state": "CA",
            "country": "United States",
            "latitude": 37.320161364637,
            "longitude": -121.9523006242
         },
         "id": "138498276215828"
      },
      {
         "name": "mount jazz's",
         "category": "Local business",
         "location": {
            "city": "Santa Clara",
            "state": "CA",
            "country": "United States",
            "latitude": 37.3346531,
            "longitude": -121.9637793
         },
         "id": "146845045361808"
      },
      {
         "name": "Happy House",
         "category": "Local business",
         "location": {
            "city": "San Jose",
            "state": "CA",
            "country": "United States",
            "latitude": 37.320796066667,
            "longitude": -121.97216825
         },
         "id": "177841392238480"
      },
      {
         "name": "Roux Louisina Kitchen Santana Row",
         "category": "Local business",
         "location": {
            "latitude": 37.32152545,
            "longitude": -121.9500454
         },
         "id": "250645418280113"
      },
      {
         "name": "San Tomas Liquor & Deli",
         "category": "Local business",
         "location": {
            "street": "240 Saratoga Ave",
            "city": "Santa Clara",
            "state": "CA",
            "country": "United States",
            "zip": "95050-6629",
            "latitude": 37.32873,
            "longitude": -121.96517
         },
         "id": "119176081426601"
      },
      {
         "name": "Big 5",
         "category": "Local business",
         "location": {
            "city": "San Jose",
            "state": "CA",
            "country": "United States",
            "latitude": 37.322139,
            "longitude": -121.951002
         },
         "id": "166733696705590"
      },
      {
         "name": "Men's Wearhouse",
         "category": "Local business",
         "location": {
            "street": "3121 STEVENS CREEK BLVD.",
            "city": "SAN JOSE, CA",
            "zip": "95117",
            "latitude": 37.323981608354,
            "longitude": -121.95097628389
         },
         "id": "182418725147307"
      },
      {
         "name": "Vision Dance and Pilates Center",
         "category": "Local business",
         "location": {
            "street": "375 Saratoga Avenue, Unit B",
            "city": "San Jose",
            "state": "CA",
            "country": "United States",
            "zip": "95129",
            "latitude": 37.321301145833,
            "longitude": -121.97255561167
         },
         "id": "116571291750158"
      },
      {
         "name": "The Monterey",
         "category": "Real estate",
         "location": {
            "street": "3510 Moorpark Ave",
            "city": "San Jose",
            "state": "CA",
            "country": "United States",
            "zip": "95117",
            "latitude": 37.3156557724,
            "longitude": -121.96041494705
         },
         "id": "144806945590169"
      },
      {
         "name": "Bay Area Computerman",
         "category": "Local business",
         "location": {
            "street": "3680 Stevens Creek Blvd, Suite F",
            "city": "San Jose",
            "state": "CA",
            "country": "United States",
            "zip": "95117",
            "latitude": 37.322850445,
            "longitude": -121.96542173125
         },
         "id": "205714696154865"
      },
      {
         "name": "Halloween City",
         "category": "Local business",
         "location": {
            "latitude": 37.324686326814,
            "longitude": -121.95063082383
         },
         "id": "159338110818095"
      },
      {
         "name": "Old Navy",
         "category": "Local business",
         "location": {
            "street": "2855 Stevens Creek Boulevard",
            "city": "Santa Clara",
            "state": "CA",
            "country": "United States",
            "zip": "95050",
            "latitude": 37.325363464322,
            "longitude": -121.94853751157
         },
         "id": "148560845162659"
      },
      {
         "name": "Sparkling Car Wash",
         "category": "Local business",
         "location": {
            "city": "Santa Clara",
            "state": "CA",
            "country": "United States",
            "latitude": 37.324206983333,
            "longitude": -121.9686732
         },
         "id": "115989538457328"
      },
      {
         "name": "Pacific Autism Center for Education",
         "category": "Non-profit organization",
         "location": {
            "street": "1880 Pruneridge Ave",
            "city": "Santa Clara",
            "state": "CA",
            "country": "United States",
            "zip": "95050-6514",
            "latitude": 37.329393005632,
            "longitude": -121.95151530782
         },
         "id": "154988324541217"
      },
      {
         "name": "Clubone Gym",
         "category": "Local business",
         "location": {
            "city": "San Jose",
            "state": "CA",
            "country": "United States",
            "latitude": 37.320654896271,
            "longitude": -121.94951302726
         },
         "id": "135156313198234"
      },
      {
         "name": "7-Eleven",
         "category": "Local business",
         "location": {
            "street": "497 KIELY BLVD",
            "city": "San Jose, CA",
            "zip": "951171214",
            "latitude": 37.31948,
            "longitude": -121.97138
         },
         "id": "202595026471554"
      },
      {
         "name": "City of San Jose Senior Centers-Programs",
         "category": "Local business",
         "location": {
            "street": "403 Cypress Ave",
            "city": "San Jose",
            "state": "CA",
            "country": "United States",
            "zip": "95117-1530",
            "latitude": 37.321435,
            "longitude": -121.959972
         },
         "id": "113750528656010"
      },
      {
         "name": "Precision Motorworks",
         "category": "Automotive",
         "location": {
            "street": "2545 Keystone Ave.",
            "city": "Santa Clara",
            "state": "CA",
            "country": "United States",
            "zip": "95051",
            "latitude": 37.32477,
            "longitude": -121.96736
         },
         "id": "115881177226"
      },
      {
         "name": "Tires Unlimited-Silicon Valley (San Jose)",
         "category": "Automobiles and parts",
         "location": {
            "street": "3744 Stevens Creek Blvd",
            "city": "San Jose",
            "state": "CA",
            "country": "United States",
            "zip": "95117",
            "latitude": 37.3232307,
            "longitude": -121.9671402
         },
         "id": "410183012951"
      },
      {
         "name": "Hotel Valencia",
         "category": "Local business",
         "location": {
            "latitude": 37.32419,
            "longitude": -121.96724
         },
         "id": "161661200574149"
      },
      {
         "name": "Wahoo's \u0040 Santana Row",
         "category": "Local business",
         "location": {
            "city": "San Jose",
            "state": "CA",
            "country": "United States",
            "latitude": 37.32072626529,
            "longitude": -121.94905857738
         },
         "id": "141740762528780"
      },
      {
         "name": "The Dance Affair",
         "category": "Education",
         "location": {
            "street": "850 North Winchester Blvd",
            "city": "San Jose",
            "state": "CA",
            "country": "United States",
            "zip": "95128",
            "latitude": 37.331019025602,
            "longitude": -121.94981122447
         },
         "id": "111781644380"
      },
      {
         "name": "Metro PCS",
         "category": "Local business",
         "location": {
            "city": "San Jose",
            "state": "CA",
            "country": "United States",
            "latitude": 37.32356,
            "longitude": -121.97197
         },
         "id": "168963736475850"
      },
      {
         "name": "Valleyfair Shopping Center",
         "category": "Local business",
         "location": {
            "city": "San Jose",
            "state": "CA",
            "country": "United States",
            "latitude": 37.324902,
            "longitude": -121.947891
         },
         "id": "177117868980000"
      },
      {
         "name": "roux Santans Row",
         "category": "Local business",
         "location": {
            "city": "San Jose",
            "state": "CA",
            "country": "United States",
            "latitude": 37.320751316667,
            "longitude": -121.94964073333
         },
         "id": "175518755829564"
      },
      {
         "name": "silicon valley",
         "category": "Local business",
         "location": {
            "latitude": 37.325582833333,
            "longitude": -121.96710091667
         },
         "id": "160895800640723"
      },
      {
         "name": "chillis",
         "category": "Local business",
         "location": {
            "latitude": 37.322291374207,
            "longitude": -121.95021152496
         },
         "id": "226327327380238"
      },
      {
         "name": "Citrus",
         "category": "Local business",
         "location": {
            "city": "San Jose",
            "state": "CA",
            "country": "United States",
            "latitude": 37.320827403333,
            "longitude": -121.94871308
         },
         "id": "113469125384032"
      },
      {
         "name": "Mission City Memorial Park",
         "category": "Local business",
         "location": {
            "street": "420 N Winchester Blvd",
            "city": "Santa Clara",
            "state": "CA",
            "country": "United States",
            "zip": "95050-6325",
            "latitude": 37.328253,
            "longitude": -121.950199
         },
         "id": "114172595273884"
      },
      {
         "name": "Bellarmine Salon | Santana Row",
         "category": "Spas/beauty/personal care",
         "location": {
            "street": "355 Santana Row # 1035",
            "city": "San Jose",
            "state": "CA",
            "country": "United States",
            "zip": "95128",
            "latitude": 37.32060943617,
            "longitude": -121.94866313677
         },
         "id": "141515785889339"
      },
      {
         "name": "Mary Gomez Park",
         "category": "Local business",
         "location": {
            "city": "Santa Clara",
            "state": "CA",
            "country": "United States",
            "latitude": 37.336027842738,
            "longitude": -121.96856550888
         },
         "id": "129759640402163"
      },
      {
         "name": "chill's",
         "category": "Local business",
         "location": {
            "city": "San Jose",
            "state": "CA",
            "country": "United States",
            "latitude": 37.316439,
            "longitude": -121.955239
         },
         "id": "105895752829518"
      },
      {
         "name": "Nordstroms Bistro Cafe",
         "category": "Local business",
         "location": {
            "latitude": 37.326287885072,
            "longitude": -121.94691749721
         },
         "id": "247525535284640"
      },
      {
         "name": "Stevens Creek Jeep Chrysler Dodge",
         "category": "Automobiles and parts",
         "location": {
            "street": "4100 Stevens Creek Blvd.",
            "city": "San Jose",
            "state": "CA",
            "country": "United States",
            "zip": "95129",
            "latitude": 37.322081991928,
            "longitude": -121.97408917197
         },
         "id": "213470308717275"
      },
      {
         "name": "3s International Travel Inc",
         "category": "Local business",
         "location": {
            "street": "3396 Stevens Creek Blvd",
            "city": "San Jose",
            "state": "CA",
            "country": "United States",
            "zip": "95117-1061",
            "latitude": 37.323063,
            "longitude": -121.958169
         },
         "id": "115954298426434"
      },
      {
         "name": "yard house santana row",
         "category": "Local business",
         "location": {
            "latitude": 37.322713136673,
            "longitude": -121.94832801819
         },
         "id": "139566266141780"
      },
      {
         "name": "Rosie Mcannes",
         "category": "Local business",
         "location": {
            "city": "San Jose",
            "state": "CA",
            "country": "United States",
            "latitude": 37.3169975,
            "longitude": -121.963708
         },
         "id": "177679098937470"
      },
      {
         "name": "St Mark's Episcopal Church",
         "category": "Local business",
         "location": {
            "street": "1957 Pruneridge Ave",
            "city": "Santa Clara",
            "state": "CA",
            "country": "United States",
            "zip": "95050-6515",
            "latitude": 37.3304098395,
            "longitude": -121.95311023525
         },
         "id": "111313175570322"
      },
      {
         "name": "Falafel on the Row",
         "category": "Local business",
         "location": {
            "city": "San Jose",
            "state": "CA",
            "country": "United States",
            "latitude": 37.321009115293,
            "longitude": -121.94896450453
         },
         "id": "137552386288058"
      },
      {
         "name": "Left Bank Steakhouse",
         "category": "Local business",
         "location": {
            "city": "San Jose",
            "state": "CA",
            "country": "United States",
            "latitude": 37.322400316667,
            "longitude": -121.94812396667
         },
         "id": "135470996501733"
      },
      {
         "name": "A slice of new york pizza",
         "category": "Local business",
         "location": {
            "city": "San Jose",
            "state": "CA",
            "country": "United States",
            "latitude": 37.32152,
            "longitude": -121.9657
         },
         "id": "133605060035909"
      },
      {
         "name": "Anthropologie",
         "category": "Local business",
         "location": {
            "city": "San Jose",
            "state": "CA",
            "country": "United States",
            "zip": "95128",
            "latitude": 37.321296094276,
            "longitude": -121.94790271923
         },
         "id": "117019965044864"
      },
      {
         "name": "The New Hope Chiropractic",
         "category": "Local business",
         "location": {
            "latitude": 37.324964948461,
            "longitude": -121.96791891142
         },
         "id": "185581061487997"
      },
      {
         "name": "Jack in the Box",
         "category": "Local business",
         "location": {
            "street": "3395 Stevens Creek Blvd",
            "city": "San Jose, California",
            "zip": "95117",
            "latitude": 37.32331085,
            "longitude": -121.9581986
         },
         "id": "289586417739090"
      },
      {
         "name": "Lion Supermarket",
         "category": "Local business",
         "location": {
            "city": "San Jose",
            "state": "CA",
            "country": "United States",
            "latitude": 37.319128956569,
            "longitude": -121.9744055776
         },
         "id": "182051598500578"
      },
      {
         "name": "Microsoft Store | Westfield Valley Fair",
         "category": "Local business",
         "location": {
            "street": "2855 Stevens Creek Blvd",
            "city": "Santa Clara, California",
            "zip": "95050",
            "latitude": 37.32562,
            "longitude": -121.94656
         },
         "id": "168718729888933"
      },
      {
         "name": "Wheel Works",
         "category": "Local business",
         "location": {
            "city": "San Jose",
            "state": "CA",
            "country": "United States",
            "latitude": 37.3221263,
            "longitude": -121.97516566667
         },
         "id": "146533265378533"
      },
      {
         "name": "Stevens creek pre-owned",
         "category": "Local business",
         "location": {
            "city": "San Jose",
            "state": "CA",
            "country": "United States",
            "latitude": 37.323083503888,
            "longitude": -121.9668890396
         },
         "id": "184836734891164"
      },
      {
         "name": "Christ Church of India",
         "category": "Organization",
         "location": {
            "street": "460 S.Cypress Ave.,",
            "city": "San Jose",
            "state": "CA",
            "country": "United States",
            "zip": "95117",
            "latitude": 37.31945693159,
            "longitude": -121.9592624048
         },
         "id": "146401324787"
      },
      {
         "name": "Good Life Nutrition",
         "category": "Health/medical/pharmacy",
         "location": {
            "street": "437 Kiely Blvd.",
            "city": "San Jose",
            "state": "CA",
            "country": "United States",
            "zip": "95117",
            "latitude": 37.3203633368,
            "longitude": -121.97127975858
         },
         "id": "110312049053437"
      },
      {
         "name": "MINI",
         "category": "Local business",
         "location": {
            "city": "San Jose",
            "state": "CA",
            "country": "United States",
            "latitude": 37.3231157,
            "longitude": -121.975847745
         },
         "id": "137466269651037"
      },
      {
         "name": "Panaderia & Pasteleria Los Tres Hermanos",
         "category": "Local business",
         "location": {
            "street": "3377 Stevens Creek Blvd",
            "city": "San Jose",
            "state": "CA",
            "country": "United States",
            "zip": "95117-1038",
            "latitude": 37.323237,
            "longitude": -121.958029
         },
         "id": "116801765005978"
      },
      {
         "name": "Burke Williams Spa - Santana Row, San Jose CA",
         "category": "Local business",
         "location": {
            "latitude": 37.32006,
            "longitude": -121.94756
         },
         "id": "287448884615016"
      },
      {
         "name": "Church of the Valley",
         "category": "Local business",
         "location": {
            "street": "400 N. Winchester Blvd",
            "city": "Santa Clara",
            "state": "CA",
            "country": "United States",
            "zip": "95050",
            "latitude": 37.333292303643,
            "longitude": -121.9508692736
         },
         "id": "111662004210"
      },
      {
         "name": "Home Depot",
         "category": "Local business",
         "location": {
            "latitude": 37.32798472516,
            "longitude": -121.96671523165
         },
         "id": "206471382718761"
      },
      {
         "name": "F J Western Wear",
         "category": "Local business",
         "location": {
            "city": "Santa Clara",
            "state": "CA",
            "country": "United States",
            "latitude": 37.330013666667,
            "longitude": -121.96257595
         },
         "id": "154886997900687"
      },
      {
         "name": "Yuki Sushi",
         "category": "Local business",
         "location": {
            "city": "San Jose",
            "state": "CA",
            "country": "United States",
            "latitude": 37.322608,
            "longitude": -121.94784266667
         },
         "id": "144773948905212"
      },
      {
         "name": "Andersen Bakery & Cafe",
         "category": "Local business",
         "location": {
            "city": "San Jose",
            "state": "CA",
            "country": "United States",
            "latitude": 37.32521799,
            "longitude": -121.94703164273
         },
         "id": "166166140065870"
      },
      {
         "name": "Olin Avenue Market",
         "category": "Food/grocery",
         "location": {
            "street": "355 Santana Row Suite 1030",
            "city": "San Jose",
            "state": "CA",
            "country": "United States",
            "zip": "95128",
            "latitude": 37.320583757072,
            "longitude": -121.94840907413
         },
         "id": "205533426144785"
      },
      {
         "name": "S\u012aNO",
         "category": "Local business",
         "location": {
            "latitude": 37.31988749035,
            "longitude": -121.94762670221
         },
         "id": "134106016667073"
      },
      {
         "name": "Hula Halau 'O Pi'ilani",
         "category": "Local business",
         "location": {
            "street": "2435 Forest Ave Ste 110",
            "city": "San Jose",
            "state": "CA",
            "country": "United States",
            "zip": "95128-1595",
            "latitude": 37.326958838898,
            "longitude": -121.94756459552
         },
         "id": "160516777299495"
      },
      {
         "name": "Mazda",
         "category": "Local business",
         "location": {
            "city": "San Jose",
            "state": "CA",
            "country": "United States",
            "latitude": 37.323192033333,
            "longitude": -121.97566156667
         },
         "id": "172974219382562"
      },
      {
         "name": "Rosie McCann's",
         "category": "Local business",
         "location": {
            "city": "San Jose",
            "state": "CA",
            "country": "United States",
            "latitude": 37.31970113,
            "longitude": -121.97424572
         },
         "id": "148220055211353"
      },
      {
         "name": "Express Men",
         "category": "Local business",
         "location": {
            "street": "2855 Stevens Creek Blvd",
            "city": "San Jose",
            "state": "CA",
            "country": "United States",
            "zip": "95050",
            "latitude": 37.325253485337,
            "longitude": -121.94619544953
         },
         "id": "187719721259145"
      },
      {
         "name": "V Bar At Hotel Valencia Santana Row",
         "category": "Local business",
         "location": {
            "latitude": 37.320878254284,
            "longitude": -121.94834486593
         },
         "id": "192238777493778"
      },
      {
         "name": "The Harker School",
         "category": "Education",
         "location": {
            "street": "500 Saratoga Ave.",
            "city": "San Jose",
            "state": "CA",
            "country": "United States",
            "zip": "95129",
            "latitude": 37.3182106,
            "longitude": -121.9739685
         },
         "id": "94278130736"
      },
      {
         "name": "slice of ny pizza",
         "category": "Local business",
         "location": {
            "latitude": 37.32155625,
            "longitude": -121.9585819
         },
         "id": "196472063733513"
      },
      {
         "name": "Chillies",
         "category": "Local business",
         "location": {
            "latitude": 37.32098209,
            "longitude": -121.96105736
         },
         "id": "219831354699288"
      },
      {
         "name": "7-Eleven",
         "category": "Local business",
         "location": {
            "street": "315 SARATOGA AVE",
            "city": "Santa Clara, CA",
            "zip": "950507002",
            "latitude": 37.33006,
            "longitude": -121.9638
         },
         "id": "110080732427610"
      },
      {
         "name": "Feel-at-Home Care",
         "category": "Small business",
         "location": {
            "street": "36 Harold Ave. Ste D-2",
            "city": "San Jose",
            "state": "CA",
            "country": "United States",
            "zip": "95050",
            "latitude": 37.3242683,
            "longitude": -121.9621582
         },
         "id": "281849781839068"
      },
      {
         "name": "Santana Row 6",
         "category": "Local business",
         "location": {
            "street": "3088 Olsen Drive",
            "city": "San Jose",
            "state": "CA",
            "country": "United States",
            "zip": "95128",
            "latitude": 37.319123,
            "longitude": -121.948645
         },
         "id": "189457607757146"
      },
      {
         "name": "Cypress Elm School",
         "category": "Local business",
         "location": {
            "city": "San Jose",
            "state": "CA",
            "country": "United States",
            "latitude": 37.3210532,
            "longitude": -121.9602354
         },
         "id": "144001445620942"
      },
      {
         "name": "LUSH Cosmetics Valley Fair Mall",
         "category": "Local business",
         "location": {
            "street": "2855 Stevens Creek Blvd #1147",
            "city": "Santa Clara",
            "state": "CA",
            "country": "United States",
            "zip": "95050",
            "latitude": 37.325345693351,
            "longitude": -121.94703055936
         },
         "id": "149110188469346"
      },
      {
         "name": "inSpa",
         "category": "Local business",
         "location": {
            "city": "San Jose",
            "state": "CA",
            "country": "United States",
            "latitude": 37.321320393179,
            "longitude": -121.95977848307
         },
         "id": "148187801912384"
      },
      {
         "name": "Starbucks",
         "category": "Local business",
         "location": {
            "city": "Santa Clara",
            "state": "CA",
            "country": "United States",
            "latitude": 37.337424262146,
            "longitude": -121.95695425087
         },
         "id": "121275584595000"
      },
      {
         "name": "Tommy Bahama San Jose",
         "category": "Local business",
         "location": {
            "street": "355 Santana Row",
            "city": "San Jose",
            "state": "CA",
            "country": "United States",
            "zip": "95128-2049",
            "latitude": 37.32064174576,
            "longitude": -121.94821682376
         },
         "id": "147048938656558"
      },
      {
         "name": "Metropark",
         "category": "Local business",
         "location": {
            "street": "2855 Stevens Creek Blvd Ste 1133",
            "city": "Santa Clara",
            "state": "CA",
            "country": "United States",
            "zip": "95050-6717",
            "latitude": 37.325445054068,
            "longitude": -121.94562539303
         },
         "id": "111956492191785"
      },
      {
         "name": "movable feast",
         "category": "Local business",
         "location": {
            "latitude": 37.32265314417,
            "longitude": -121.97000037562
         },
         "id": "224910870901968"
      },
      {
         "name": "HMM Models",
         "category": "Local business",
         "location": {
            "street": "3777 STEVENS CREEK BLVD",
            "city": "Santa Clara",
            "state": "CA",
            "country": "United States",
            "zip": "95051",
            "latitude": 37.32353925705,
            "longitude": -121.96819245815
         },
         "id": "213562492003210"
      },
      {
         "name": "Sino Restaurant&loun",
         "category": "Local business",
         "location": {
            "street": "377 Santana Row Ste 1000",
            "city": "San Jose, CA",
            "zip": "95128",
            "latitude": 37.31985,
            "longitude": -121.94797
         },
         "id": "216595608371503"
      },
      {
         "name": "Santa Row",
         "category": "Local business",
         "location": {
            "city": "San Jose",
            "state": "CA",
            "country": "United States",
            "latitude": 37.320669882576,
            "longitude": -121.94877111518
         },
         "id": "116711695054965"
      },
      {
         "name": "Mac Pro",
         "category": "Local business",
         "location": {
            "latitude": 37.32576,
            "longitude": -121.96833
         },
         "id": "203563739673955"
      },
      {
         "name": "Detail Group Car Wash at Valley Fair",
         "category": "Local business",
         "location": {
            "street": "2855 Stevens Creek Blvd",
            "city": "Santa Clara",
            "state": "CA",
            "country": "United States",
            "zip": "95050",
            "latitude": 37.3249818,
            "longitude": -121.9476427
         },
         "id": "126569480765807"
      },
      {
         "name": "Victoria Secret at Valley Fair",
         "category": "Local business",
         "location": {
            "city": "Santa Clara",
            "state": "CA",
            "country": "United States",
            "latitude": 37.3248625,
            "longitude": -121.9460475
         },
         "id": "123627107696412"
      },
      {
         "name": "Pepboys Auto",
         "category": "Local business",
         "location": {
            "latitude": 37.323172833235,
            "longitude": -121.96757854117
         },
         "id": "207410119324437"
      },
      {
         "name": "Atelier SalonSpa and Studio",
         "category": "Spas/beauty/personal care",
         "location": {
            "street": "378 Santana Row, #1120",
            "city": "San Jose",
            "state": "CA",
            "country": "United States",
            "zip": "95128",
            "latitude": 37.319522706396,
            "longitude": -121.94797422354
         },
         "id": "34951119189"
      },
      {
         "name": "Hollister Clothing Conpany",
         "category": "Local business",
         "location": {
            "city": "San Jose",
            "state": "CA",
            "country": "United States",
            "latitude": 37.325334326667,
            "longitude": -121.94692889917
         },
         "id": "149514145066550"
      },
      {
         "name": "blackford apartments",
         "category": "Local business",
         "location": {
            "city": "San Jose",
            "state": "CA",
            "country": "United States",
            "latitude": 37.31503017,
            "longitude": -121.96804086
         },
         "id": "113214448734113"
      },
      {
         "name": "Spirit Halloween",
         "category": "Local business",
         "location": {
            "city": "San Jose",
            "state": "CA",
            "country": "United States",
            "latitude": 37.322019861614,
            "longitude": -121.97326066476
         },
         "id": "137549362964355"
      },
      {
         "name": "Free People Santana Row",
         "category": "Shopping/retail",
         "location": {
            "street": "333 Santana Row Ste 1110",
            "city": "San Jose",
            "state": "CA",
            "country": "United States",
            "zip": "95128",
            "latitude": 37.321606241482,
            "longitude": -121.94789318539
         },
         "id": "166826136701505"
      },
      {
         "name": "Maggianos",
         "category": "Local business",
         "location": {
            "city": "San Jose",
            "state": "CA",
            "country": "United States",
            "latitude": 37.312799970913,
            "longitude": -121.96257666129
         },
         "id": "153423791375661"
      },
      {
         "name": "Donald J Pliner",
         "category": "Company",
         "location": {
            "latitude": 37.320435446667,
            "longitude": -121.94791235333
         },
         "id": "64707432070"
      },
      {
         "name": "My House",
         "category": "Local business",
         "location": {
            "city": "San Jose",
            "state": "CA",
            "country": "United States",
            "latitude": 37.314308190059,
            "longitude": -121.97071852966
         },
         "id": "147843045248880"
      },
      {
         "name": "Family \ucc1c\uc9c8\ubc29",
         "category": "Local business",
         "location": {
            "city": "Santa Clara",
            "state": "CA",
            "country": "United States",
            "latitude": 37.324779715,
            "longitude": -121.968883805
         },
         "id": "110852265646233"
      },
      {
         "name": "lenscrafters-Valleyfair",
         "category": "Local business",
         "location": {
            "city": "San Jose",
            "state": "CA",
            "country": "United States",
            "latitude": 37.325130875,
            "longitude": -121.947266225
         },
         "id": "186398774719897"
      },
      {
         "name": "Lisa's Tea Treasures Santana Row",
         "category": "Restaurant/cafe",
         "location": {
            "street": "377 Santana Row #1145",
            "city": "San Jose",
            "state": "CA",
            "country": "United States",
            "zip": "95128 ",
            "latitude": 37.319103309085,
            "longitude": -121.94903789357
         },
         "id": "253732027978227"
      },
      {
         "name": "Lucky Foot Massage",
         "category": "Local business",
         "location": {
            "latitude": 37.32576,
            "longitude": -121.96833
         },
         "id": "169139956483064"
      },
      {
         "name": "Ted Baker Limited",
         "category": "Local business",
         "location": {
            "street": "378 Santana Row Ste 1010",
            "city": "San Jose",
            "state": "CA",
            "country": "United States",
            "zip": "95128-2040",
            "latitude": 37.320369295699,
            "longitude": -121.9479104026
         },
         "id": "121117304603598"
      },
      {
         "name": "Belmont Village Assisted Living",
         "category": "Local business",
         "location": {
            "city": "San Jose",
            "state": "CA",
            "country": "United States",
            "latitude": 37.31817,
            "longitude": -121.94971
         },
         "id": "201830233166128"
      },
      {
         "name": "Sushi Boat Kazoo",
         "category": "Local business",
         "location": {
            "latitude": 37.3254908,
            "longitude": -121.946236
         },
         "id": "172258086173211"
      },
      {
         "name": "Fresh Healthy Caf\u00e9 at Valley Fair",
         "category": "Restaurant/cafe",
         "location": {
            "street": "2855 Stevens Creek Boulevard",
            "city": "Santa Clara",
            "state": "CA",
            "country": "United States",
            "zip": "95050",
            "latitude": 37.326124850199,
            "longitude": -121.94566650396
         },
         "id": "151694688241965"
      },
      {
         "name": "HP Pavilion",
         "category": "Local business",
         "location": {
            "city": "San Jose",
            "state": "CA",
            "country": "United States",
            "latitude": 37.321013161765,
            "longitude": -121.94796250765
         },
         "id": "158455674198530"
      },
      {
         "name": "white house black market valley fair",
         "category": "Local business",
         "location": {
            "city": "Santa Clara",
            "state": "CA",
            "country": "United States",
            "latitude": 37.325439114775,
            "longitude": -121.94510046985
         },
         "id": "128919727173281"
      },
      {
         "name": "Coach",
         "category": "Local business",
         "location": {
            "city": "San Jose",
            "state": "CA",
            "country": "United States",
            "latitude": 37.325483455247,
            "longitude": -121.94608236597
         },
         "id": "165833336797725"
      },
      {
         "name": "Five Branches University",
         "category": "Local business",
         "location": {
            "city": "San Jose",
            "state": "CA",
            "country": "United States",
            "latitude": 37.32152,
            "longitude": -121.9657
         },
         "id": "202143876466953"
      },
      {
         "name": "bebe",
         "category": "Local business",
         "location": {
            "street": "2855 Stevens Creek Blvd. #1117 ",
            "city": "Santa Clara",
            "state": "CA",
            "country": "United States",
            "zip": "95050",
            "latitude": 37.32534134324,
            "longitude": -121.94493801408
         },
         "id": "140320796034372"
      },
      {
         "name": "Vans Valley Fair",
         "category": "Local business",
         "location": {
            "city": "San Jose",
            "state": "CA",
            "country": "United States",
            "latitude": 37.325574213645,
            "longitude": -121.94583154836
         },
         "id": "211334432218639"
      },
      {
         "name": "Steve Madden Retail Inc",
         "category": "Local business",
         "location": {
            "street": "2855 Stevens Creek Blvd Ste 2315",
            "city": "Santa Clara",
            "state": "CA",
            "country": "United States",
            "zip": "95050-6723",
            "latitude": 37.325416598876,
            "longitude": -121.94569542016
         },
         "id": "151499188195908"
      },
      {
         "name": "Tory Burch, Valley Fair Mall",
         "category": "Local business",
         "location": {
            "street": "2855 Stevens Creek Blvd",
            "city": "Santa Clara",
            "state": "CA",
            "country": "United States",
            "zip": "95050",
            "latitude": 37.326165156834,
            "longitude": -121.94526964236
         },
         "id": "182199205162925"
      },
      {
         "name": "Haagen-Dazs",
         "category": "Local business",
         "location": {
            "city": "San Jose",
            "state": "CA",
            "country": "United States",
            "latitude": 37.32348638,
            "longitude": -121.94749331
         },
         "id": "146476745384295"
      },
      {
         "name": "Burke Williams Day Spa & Massage",
         "category": "Local business",
         "location": {
            "latitude": 37.320821955556,
            "longitude": -121.94822923333
         },
         "id": "129592960474670"
      },
      {
         "name": "Lisa Taft Photography",
         "category": "Local business",
         "location": {
            "street": "2373 Pruneridge Ave #2",
            "city": "Santa Clara",
            "state": "CA",
            "country": "United States",
            "zip": "95050",
            "latitude": 37.32994,
            "longitude": -121.96283
         },
         "id": "26735856911"
      },
      {
         "name": "California Haircuts",
         "category": "Local business",
         "location": {
            "street": "2360 Pruneridge Ave",
            "city": "Santa Clara",
            "state": "CA",
            "country": "United States",
            "zip": "95050-6433",
            "latitude": 37.329763,
            "longitude": -121.962173
         },
         "id": "118622148189020"
      },
      {
         "name": "Ecl Enterprises Market & Deli",
         "category": "Local business",
         "location": {
            "street": "2364 Pruneridge Ave",
            "city": "Santa Clara",
            "state": "CA",
            "country": "United States",
            "zip": "95050-6433",
            "latitude": 37.329763,
            "longitude": -121.962374
         },
         "id": "113739625321306"
      },
      {
         "name": "3D/4D Fetal Imaging Center",
         "category": "Local business",
         "location": {
            "city": "San Jose",
            "state": "CA",
            "country": "United States",
            "latitude": 37.315629436359,
            "longitude": -121.97360257748
         },
         "id": "183024448398131"
      },
      {
         "name": "La Terraza Apartment Homes",
         "category": "Local business",
         "location": {
            "street": "470 Saratoga Avenue",
            "city": "San Jose",
            "state": "CA",
            "country": "United States",
            "zip": "95129",
            "latitude": 37.318926829606,
            "longitude": -121.97162633174
         },
         "id": "107299189300739"
      },
      {
         "name": "Lt. Jos\u00e9 A. Santiago Memorial Foundation",
         "category": "Non-profit organization",
         "location": {
            "street": "P.O. Box 546",
            "city": "San Jose",
            "state": "CA",
            "country": "United States",
            "zip": "95106-0546",
            "latitude": 37.3208,
            "longitude": -121.96196
         },
         "id": "107438255997266"
      },
      {
         "name": "pink poodle :-)",
         "category": "Local business",
         "location": {
            "latitude": 37.320858,
            "longitude": -121.9637497
         },
         "id": "217658461590579"
      },
      {
         "name": "Cinema Arts",
         "category": "Local business",
         "location": {
            "city": "San Jose",
            "state": "CA",
            "country": "United States",
            "latitude": 37.319247148034,
            "longitude": -121.94806221579
         },
         "id": "196863496994448"
      },
      {
         "name": "Forest Park Cabana Club",
         "category": "Local business",
         "location": {
            "street": "2911 Pruneridge Ave",
            "city": "Santa Clara",
            "state": "CA",
            "country": "United States",
            "zip": "95051-5652",
            "latitude": 37.330037,
            "longitude": -121.977787
         },
         "id": "109437965762018"
      },
      {
         "name": "Mission Skilled Nursing",
         "category": "Local business",
         "location": {
            "street": "410 N Winchester Blvd",
            "city": "Santa Clara",
            "state": "CA",
            "country": "United States",
            "zip": "95050-6325",
            "latitude": 37.328253,
            "longitude": -121.950199
         },
         "id": "118106864867276"
      },
      {
         "name": "Maido",
         "category": "Local business",
         "location": {
            "street": "378 Santana Row Ste 1125",
            "city": "San Jose, CA",
            "zip": "95128",
            "latitude": 37.319452702751,
            "longitude": -121.94786080824
         },
         "id": "152275271508950"
      },
      {
         "name": "Santana Row Farmers Market",
         "category": "Local business",
         "location": {
            "city": "San Jose",
            "state": "CA",
            "country": "United States",
            "latitude": 37.320601717737,
            "longitude": -121.94790405849
         },
         "id": "148126565220330"
      },
      {
         "name": "Labcorp",
         "category": "Local business",
         "location": {
            "city": "San Jose",
            "state": "CA",
            "country": "United States",
            "latitude": 37.327172842763,
            "longitude": -121.94708929094
         },
         "id": "160135257357176"
      },
      {
         "name": "Sony",
         "category": "Local business",
         "location": {
            "city": "San Jose",
            "state": "CA",
            "country": "United States",
            "latitude": 37.326307938412,
            "longitude": -121.94561968635
         },
         "id": "197909250230015"
      },
      {
         "name": "World Of Health San Jose",
         "category": "Local business",
         "location": {
            "street": "2910 Stevens Creek Blvd Ste: 209 ",
            "city": "San Jose",
            "state": "CA",
            "country": "United States",
            "zip": "95128",
            "latitude": 37.322955552479,
            "longitude": -121.94611265167
         },
         "id": "165389692428"
      },
      {
         "name": "Big stall at 851",
         "category": "Local business",
         "location": {
            "city": "San Jose",
            "state": "CA",
            "country": "United States",
            "latitude": 37.323184113462,
            "longitude": -121.94974980192
         },
         "id": "109166879164119"
      },
      {
         "name": "Chipotle!!!!",
         "category": "Local business",
         "location": {
            "latitude": 37.32051,
            "longitude": -121.96171
         },
         "id": "287812914579384"
      },
      {
         "name": "Your Mom's House",
         "category": "Local business",
         "location": {
            "city": "San Jose",
            "state": "CA",
            "country": "United States",
            "latitude": 37.3200863,
            "longitude": -121.96015095
         },
         "id": "158663294171891"
      },
      {
         "name": "Law Office of Scotty J. Storey",
         "category": "Local business",
         "location": {
            "street": "100 Saratoga Avenue, Suite 100",
            "city": "Santa Clara",
            "state": "CA",
            "country": "United States",
            "zip": "95051",
            "latitude": 37.32522,
            "longitude": -121.96823
         },
         "id": "103387463040182"
      },
      {
         "name": "See's Candies",
         "category": "Local business",
         "location": {
            "street": "2855 Stevens Creek Blvd",
            "city": "Santa Clara",
            "state": "CA",
            "country": "United States",
            "zip": "95050-6709",
            "latitude": 37.325353723471,
            "longitude": -121.94586915311
         },
         "id": "124831120898004"
      },
      {
         "name": "The Park Kiely Gym",
         "category": "Local business",
         "location": {
            "city": "San Jose",
            "state": "CA",
            "country": "United States",
            "latitude": 37.31994258184,
            "longitude": -121.97757923962
         },
         "id": "189397564418781"
      },
      {
         "name": "Anthropologie-Santana",
         "category": "Local business",
         "location": {
            "city": "Santa Clara",
            "state": "CA",
            "country": "United States",
            "latitude": 37.323301,
            "longitude": -121.946089
         },
         "id": "155260901196653"
      },
      {
         "name": "Straights cafe",
         "category": "Local business",
         "location": {
            "latitude": 37.320652,
            "longitude": -121.958163
         },
         "id": "142749229132022"
      },
      {
         "name": "Stevens Creek Toyota",
         "category": "Local business",
         "location": {
            "city": "Santa Clara",
            "state": "CA",
            "country": "United States",
            "latitude": 37.325716,
            "longitude": -121.968368
         },
         "id": "129598793772114"
      },
      {
         "name": "Hot Dog on a Stick",
         "category": "Local business",
         "location": {
            "city": "Santa Clara",
            "state": "CA",
            "country": "United States",
            "latitude": 37.324870817061,
            "longitude": -121.94499025091
         },
         "id": "147475191944426"
      },
      {
         "name": "V Bar \u0040 Santana Row",
         "category": "Local business",
         "location": {
            "city": "San Jose",
            "state": "CA",
            "country": "United States",
            "latitude": 37.321983333333,
            "longitude": -121.94529666667
         },
         "id": "129192993810710"
      },
      {
         "name": "BGAI",
         "category": "Business services",
         "location": {
            "street": "3777 Stevens Creek Blvd Suit 440",
            "city": "Santa Clara",
            "state": "CA",
            "country": "United States",
            "zip": "95051",
            "latitude": 37.323237,
            "longitude": -121.967195
         },
         "id": "108479165869034"
      },
      {
         "name": "Village Cafe & Bistro - Santana Row",
         "category": "Local business",
         "location": {
            "latitude": 37.31973,
            "longitude": -121.94759
         },
         "id": "176610222394991"
      },
      {
         "name": "Rosie McCann's Irish Pub and Restaurant",
         "category": "Local business",
         "location": {
            "latitude": 37.31271,
            "longitude": -121.96285
         },
         "id": "135968909823288"
      },
      {
         "name": "Scotia Studio for Hair",
         "category": "Local business",
         "location": {
            "street": "2373 Pruneridge Ave",
            "city": "Santa Clara",
            "state": "CA",
            "country": "United States",
            "zip": "95050-6400",
            "latitude": 37.330037,
            "longitude": -121.962824
         },
         "id": "100514260009567"
      },
      {
         "name": "Superdry Store",
         "category": "Local business",
         "location": {
            "latitude": 37.325473534592,
            "longitude": -121.94502770259
         },
         "id": "126532627426078"
      },
      {
         "name": "Excel Driving School",
         "category": "Local business",
         "location": {
            "street": "20 Harold Ave. Suite 40",
            "city": "San Jose",
            "state": "CA",
            "country": "United States",
            "zip": "95117",
            "latitude": 37.324,
            "longitude": -121.96218
         },
         "id": "110877288957814"
      },
      {
         "name": "GUESS by Marciano",
         "category": "Local business",
         "location": {
            "street": "2855 Stevens Creek Blvd. Suite # A093",
            "city": "Santa Clara",
            "state": "CA",
            "country": "United States",
            "zip": "95050",
            "latitude": 37.3234482,
            "longitude": -121.9460068
         },
         "id": "198131240258271"
      },
      {
         "name": "Chase",
         "category": "Local business",
         "location": {
            "latitude": 37.32308,
            "longitude": -121.96848
         },
         "id": "123650151060888"
      },
      {
         "name": "Round Table Pizza",
         "category": "Local business",
         "location": {
            "city": "Santa Clara",
            "state": "CA",
            "country": "United States",
            "latitude": 37.33084195,
            "longitude": -121.96628105
         },
         "id": "181403548572491"
      },
      {
         "name": "maggianos santana row ca",
         "category": "Local business",
         "location": {
            "latitude": 37.3209477,
            "longitude": -121.9496569
         },
         "id": "227867787251126"
      },
      {
         "name": "Ruby Yogurt",
         "category": "Local business",
         "location": {
            "latitude": 37.31971188868,
            "longitude": -121.97401031334
         },
         "id": "191404357575283"
      },
      {
         "name": "Citibank Branch Santa Clara-Pruneridge",
         "category": "Local business",
         "location": {
            "street": "2500 Pruneridge Ave",
            "city": "Santa Clara, CA",
            "zip": "95050",
            "latitude": 37.3297348,
            "longitude": -121.9656448
         },
         "id": "232598063461881"
      },
      {
         "name": "Anderson Bakery",
         "category": "Local business",
         "location": {
            "city": "San Jose",
            "state": "CA",
            "country": "United States",
            "latitude": 37.324902,
            "longitude": -121.947891
         },
         "id": "173768169302396"
      },
      {
         "name": "Silicon Valley Asian Art Center & Narx Gallery",
         "category": "Museum/art gallery",
         "location": {
            "street": "3777 Stevens Creek Blvd",
            "city": "Santa Clara",
            "state": "CA",
            "country": "United States",
            "zip": "95051",
            "latitude": 37.32321,
            "longitude": -121.968
         },
         "id": "198070616889523"
      },
      {
         "name": "Car Care AAA Approved auto repair",
         "category": "Automotive",
         "location": {
            "street": "2615 Keystone Ave",
            "city": "Santa Clara",
            "state": "CA",
            "country": "United States",
            "zip": "95051",
            "latitude": 37.325,
            "longitude": -121.96905
         },
         "id": "109996222423496"
      },
      {
         "name": "The Law Office of Scotty J. Storey",
         "category": "Local business",
         "location": {
            "street": "100 Saratoga Avenue, Suite 100",
            "city": "Santa Clara",
            "state": "CA",
            "country": "United States",
            "zip": "95051",
            "latitude": 37.32522,
            "longitude": -121.96823
         },
         "id": "266260008555"
      },
      {
         "name": "Winchester Fellowship",
         "category": "Local business",
         "location": {
            "city": "Santa Clara",
            "state": "CA",
            "country": "United States",
            "latitude": 37.3352334,
            "longitude": -121.9502713
         },
         "id": "146671042037609"
      },
      {
         "name": "Z salon",
         "category": "Local business",
         "location": {
            "city": "San Jose",
            "state": "CA",
            "country": "United States",
            "latitude": 37.323619683333,
            "longitude": -121.97224555
         },
         "id": "173284969362103"
      },
      {
         "name": "Stevens Creek Family Dentistry",
         "category": "Local business",
         "location": {
            "street": "3981 Steven Creek blvd.",
            "city": "Santa Clara",
            "state": "CA",
            "country": "United States",
            "latitude": 37.323515643266,
            "longitude": -121.97231370416
         },
         "id": "164353466922550"
      },
      {
         "name": "The Counter",
         "category": "Local business",
         "location": {
            "city": "San Jose",
            "state": "CA",
            "country": "United States",
            "latitude": 37.318054444444,
            "longitude": -121.97369222222
         },
         "id": "179776462042016"
      },
      {
         "name": "dr. shen",
         "category": "Local business",
         "location": {
            "city": "San Jose",
            "state": "CA",
            "country": "United States",
            "latitude": 37.323071625,
            "longitude": -121.9539956
         },
         "id": "148675315168906"
      },
      {
         "name": "Intero Santana Row",
         "category": "Real estate",
         "location": {
            "street": "377 Santana Row, Suite 1180",
            "city": "San Jose",
            "state": "CA",
            "country": "United States",
            "zip": "95128",
            "latitude": 37.319150352112,
            "longitude": -121.94951495239
         },
         "id": "275510966254"
      },
      {
         "name": "Eli Thomas for Men",
         "category": "Shopping/retail",
         "location": {
            "street": "377 Santana Row, Suite 1190",
            "city": "San Jose",
            "state": "CA",
            "country": "United States",
            "zip": "95128",
            "latitude": 37.319325901255,
            "longitude": -121.9490969539
         },
         "id": "365307603764"
      },
      {
         "name": "24 hours fitness",
         "category": "Local business",
         "location": {
            "latitude": 37.32974513,
            "longitude": -121.9571214
         },
         "id": "130017710409430"
      },
      {
         "name": "TGI FRIDAYS",
         "category": "Local business",
         "location": {
            "city": "San Jose",
            "state": "CA",
            "country": "United States",
            "latitude": 37.324117,
            "longitude": -121.954127
         },
         "id": "142583325806000"
      },
      {
         "name": "Men's Warehouse",
         "category": "Local business",
         "location": {
            "city": "San Jose",
            "state": "CA",
            "country": "United States",
            "latitude": 37.324059539404,
            "longitude": -121.95084693856
         },
         "id": "147612628629880"
      },
      {
         "name": "Silver Clipper",
         "category": "Local business",
         "location": {
            "street": "2415 Forest Ave",
            "city": "San Jose",
            "state": "CA",
            "country": "United States",
            "zip": "95128-1505",
            "latitude": 37.327248109643,
            "longitude": -121.94704736114
         },
         "id": "147876298563427"
      },
      {
         "name": "Famous Mattress",
         "category": "Local business",
         "location": {
            "street": "3215 Stevens Creek Blvd",
            "city": "San Jose",
            "state": "CA",
            "country": "United States",
            "zip": "95117",
            "latitude": 37.32363508875,
            "longitude": -121.953581405
         },
         "id": "19054517612"
      },
      {
         "name": "Highway 280",
         "category": "Local business",
         "location": {
            "city": "San Jose",
            "state": "CA",
            "country": "United States",
            "latitude": 37.316565516667,
            "longitude": -121.96412045
         },
         "id": "123890501003915"
      },
      {
         "name": "Mi Casita \u003c3  Yay",
         "category": "Local business",
         "location": {
            "city": "San Jose",
            "state": "CA",
            "country": "United States",
            "latitude": 37.319385528564,
            "longitude": -121.9641418457
         },
         "id": "207049202654745"
      },
      {
         "name": "Manuel's Custom Tailoring",
         "category": "Local business",
         "location": {
            "street": "3237 Stevens Creek Blvd",
            "city": "San Jose",
            "state": "CA",
            "country": "United States",
            "zip": "95117-1145",
            "latitude": 37.323337,
            "longitude": -121.95419
         },
         "id": "148854215139204"
      },
      {
         "name": "the left bank \u0040 satans row",
         "category": "Local business",
         "location": {
            "city": "San Jose",
            "state": "CA",
            "country": "United States",
            "latitude": 37.31992975,
            "longitude": -121.9479767
         },
         "id": "110146509063979"
      },
      {
         "name": "Kayla Nails and Spa!!!",
         "category": "Local business",
         "location": {
            "city": "San Jose",
            "state": "CA",
            "country": "United States",
            "latitude": 37.32298107484,
            "longitude": -121.95380947508
         },
         "id": "207936192553508"
      },
      {
         "name": "pottery barn Kids",
         "category": "Local business",
         "location": {
            "latitude": 37.322244,
            "longitude": -121.953821
         },
         "id": "125614474185304"
      },
      {
         "name": "The Starving Musician",
         "category": "Local business",
         "location": {
            "latitude": 37.323309529819,
            "longitude": -121.97034821871
         },
         "id": "227222277338202"
      },
      {
         "name": "West Marine San Jose Store",
         "category": "Shopping/retail",
         "location": {
            "street": "375 C Saratoga Ave",
            "city": "San Jose",
            "state": "CA",
            "country": "United States",
            "zip": "95129",
            "latitude": 37.321233236849,
            "longitude": -121.97217801466
         },
         "id": "139555686054833"
      },
      {
         "name": "Summerwood-Santa Clara",
         "category": "Real estate",
         "location": {
            "street": "444 Saratoga Ave.",
            "city": "Santa Clara",
            "state": "CA",
            "country": "United States",
            "zip": "95050",
            "latitude": 37.33444,
            "longitude": -121.96054
         },
         "id": "180112991737"
      },
      {
         "name": "Rubio's Fresh Mexican Grill",
         "category": "Local business",
         "location": {
            "street": "2855 Stevens Creek Blvd.",
            "city": "Santa Clara",
            "state": "CA",
            "country": "United States",
            "zip": "95050",
            "latitude": 37.323413,
            "longitude": -121.945895
         },
         "id": "160350424022365"
      },
      {
         "name": "Kiely Wash & Dry",
         "category": "Local business",
         "location": {
            "city": "San Jose",
            "state": "CA",
            "country": "United States",
            "latitude": 37.319841933333,
            "longitude": -121.97152248333
         },
         "id": "147886345233912"
      },
      {
         "name": "Grand Central Sauna & Hot Tub 376 Saratoga Ave San Jose Ca 95129",
         "category": "Local business",
         "location": {
            "city": "San Jose",
            "state": "CA",
            "country": "United States",
            "latitude": 37.32083053935,
            "longitude": -121.96994699155
         },
         "id": "179714278725401"
      },
      {
         "name": "Korean West Valley Presbyterian Church",
         "category": "Local business",
         "location": {
            "city": "San Jose",
            "state": "CA",
            "country": "United States",
            "latitude": 37.3193866,
            "longitude": -121.9596797
         },
         "id": "117986084919332"
      },
      {
         "name": "Paramaunt gymnastics",
         "category": "Local business",
         "location": {
            "city": "San Jose",
            "state": "CA",
            "country": "United States",
            "latitude": 37.322194065,
            "longitude": -121.97052791
         },
         "id": "108616635862047"
      },
      {
         "name": "Paramount Tumbling",
         "category": "Local business",
         "location": {
            "latitude": 37.322184164982,
            "longitude": -121.97008603795
         },
         "id": "190049387708406"
      },
      {
         "name": "Lens Crafters",
         "category": "Local business",
         "location": {
            "city": "Santa Clara",
            "state": "CA",
            "country": "United States",
            "latitude": 37.335198466667,
            "longitude": -121.96041226667
         },
         "id": "164119973617006"
      },
      {
         "name": "NewKrungThai",
         "category": "Local business",
         "location": {
            "latitude": 37.32467,
            "longitude": -121.94989
         },
         "id": "186243594759587"
      },
      {
         "name": "SAS Shoes",
         "category": "Local business",
         "location": {
            "street": "3953 Stevens Creek Blvd",
            "city": "Santa Clara",
            "state": "CA",
            "country": "United States",
            "zip": "95051-7157",
            "latitude": 37.323237,
            "longitude": -121.969441
         },
         "id": "100513936676732"
      },
      {
         "name": "In heaven",
         "category": "Local business",
         "location": {
            "city": "San Jose",
            "state": "CA",
            "country": "United States",
            "latitude": 37.32001975,
            "longitude": -121.9681396
         },
         "id": "163890046985999"
      },
      {
         "name": "Quizno's Classic Subs",
         "category": "Local business",
         "location": {
            "street": "3275 Stevens Creek Blvd Ste 108",
            "city": "San Jose",
            "state": "CA",
            "country": "United States",
            "zip": "95117-1132",
            "latitude": 37.323285,
            "longitude": -121.955076
         },
         "id": "115889301767825"
      }
]
}
